"","faa","name","lat","lon","alt","tz","dst","tzone"
"1","04G","Lansdowne Airport",41.1304722,-80.6195833,1044,-5,"A","America/New_York"
"2","06A","Moton Field Municipal Airport",32.4605722,-85.6800278,264,-6,"A","America/Chicago"
"3","06C","Schaumburg Regional",41.9893408,-88.1012428,801,-6,"A","America/Chicago"
"4","06N","Randall Airport",41.431912,-74.3915611,523,-5,"A","America/New_York"
"5","09J","Jekyll Island Airport",31.0744722,-81.4277778,11,-5,"A","America/New_York"
"6","0A9","Elizabethton Municipal Airport",36.3712222,-82.1734167,1593,-5,"A","America/New_York"
"7","0G6","Williams County Airport",41.4673056,-84.5067778,730,-5,"A","America/New_York"
"8","0G7","Finger Lakes Regional Airport",42.8835647,-76.7812318,492,-5,"A","America/New_York"
"9","0P2","Shoestring Aviation Airfield",39.7948244,-76.6471914,1000,-5,"U","America/New_York"
"10","0S9","Jefferson County Intl",48.0538086,-122.8106436,108,-8,"A","America/Los_Angeles"
"11","0W3","Harford County Airport",39.5668378,-76.2024028,409,-5,"A","America/New_York"
"12","10C","Galt Field Airport",42.4028889,-88.3751111,875,-6,"U","America/Chicago"
"13","17G","Port Bucyrus-Crawford County Airport",40.7815556,-82.9748056,1003,-5,"A","America/New_York"
"14","19A","Jackson County Airport",34.1758638,-83.5615972,951,-5,"U","America/New_York"
"15","1A3","Martin Campbell Field Airport",35.0158056,-84.3468333,1789,-5,"A","America/New_York"
"16","1B9","Mansfield Municipal",42.0001331,-71.1967714,122,-5,"A","America/New_York"
"17","1C9","Frazier Lake Airpark",54.0133333333333,-124.768333333333,152,-8,"A","America/Vancouver"
"18","1CS","Clow International Airport",41.6959744,-88.1292306,670,-6,"U","America/Chicago"
"19","1G3","Kent State Airport",41.1513889,-81.4151111,1134,-5,"A","America/New_York"
"20","1G4","Grand Canyon West Airport",35.899904,-113.815674,4813,-7,"A","America/Phoenix"
"21","1H2","Effingham Memorial Airport",39.07,-88.534,585,-6,"A","America/Chicago"
"22","1OH","Fortman Airport",40.5553253,-84.3866186,885,-5,"U","America/New_York"
"23","1RL","Point Roberts Airpark",48.9797222,-123.0788889,10,-8,"A","America/Los_Angeles"
"24","23M","Clarke CO",32.0517,-88.4434,320,-6,"A","America/Chicago"
"25","24C","Lowell City Airport",42.95392,-85.3439058,681,-5,"A","America/New_York"
"26","24J","Suwannee County Airport",30.300125,-83.0246944,104,-5,"A","America/New_York"
"27","25D","Forest Lake Airport",45.2477456,-92.9943853,925,-6,"A","America/Chicago"
"28","29D","Grove City Airport",41.1460278,-80.16775,1371,-5,"A","America/New_York"
"29","2A0","Mark Anton Airport",35.48625,-84.9310833,718,-5,"A","America/New_York"
"30","2B2","Plum Island Airport",42.7953611,-70.8394444,11,-5,"A","America/New_York"
"31","2G2","Jefferson County Airpark",40.3602179,-80.7008742,1196,-5,"A","America/New_York"
"32","2G9","Somerset County Airport",40.0388708,-79.0149951,2275,-5,"A","America/New_York"
"33","2H0","Shelby County Airport",39.410556,-88.845556,550,-6,"A","America/Chicago"
"34","2J9","Quincy Municipal Airport",30.5978708,-84.557425,225,-5,"A","America/New_York"
"35","369","Atmautluak Airport",60.866667,-162.273056,18,-9,"A","America/Anchorage"
"36","36U","Heber City Municipal Airport",40.4818056,-111.4288056,5637,-7,"A","America/Denver"
"37","38W","Lynden Airport",48.9558961,-122.4581183,106,-8,"A","America/Los_Angeles"
"38","3D2","Ephraim-Gibraltar Airport",45.1354167,-87.1879444,773,-6,"A","America/Chicago"
"39","3G3","Wadsworth Municipal",41.0031572,-81.7564401,974,-5,"A","America/New_York"
"40","3G4","Ashland County Airport",40.9029722,-82.2556389,1206,-5,"A","America/New_York"
"41","3J1","Ridgeland Airport",32.4934167,-80.99175,79,-5,"A","America/New_York"
"42","3W2","Put-in-Bay Airport",41.3521,-82.497,595,-5,"A","America/New_York"
"43","40J","Perry-Foley Airport",30.0692778,-83.5805833,44,-5,"A","America/New_York"
"44","41N","Braceville Airport",41.2111675,-80.9692572,900,-5,"A","America/New_York"
"45","47A","Cherokee County Airport",34.3122175,-84.4221556,1219,-5,"A","America/New_York"
"46","49A","Gilmer County Airport",34.6282222,-84.5265833,1486,-5,"A","America/New_York"
"47","49X","Chemehuevi Valley",34.528889,-114.431971,638,-8,"A","America/Los_Angeles"
"48","4A4","Polk County Airport - Cornelius Moore Field",34.0186944,-85.1464722,974,-5,"A","America/New_York"
"49","4A7","Clayton County Tara Field",33.389099,-84.332397,874,-5,"A","America/New_York"
"50","4A9","Isbell Field Airport",34.4736944,-85.7213889,877,-6,"A","America/Chicago"
"51","4B8","Robertson Field",41.6893333,-72.8646944,202,-5,"A","America/New_York"
"52","4G0","Pittsburgh-Monroeville Airport",40.4526389,-79.7749167,1187,-5,"A","America/New_York"
"53","4G2","Hamburg Inc Airport",42.7008925,-78.9147569,751,-5,"A","America/New_York"
"54","4G4","Youngstown Elser Metro Airport",40.9617953,-80.6773264,1070,-5,"A","America/New_York"
"55","4I7","Putnam County Airport",39.6335556,-86.8138056,842,-5,"U","America/New_York"
"56","4U9","Dell Flight Strip",44.7357483,-112.7200133,6007,-7,"A","America/Denver"
"57","52A","Madison GA Municipal Airport",33.612125,-83.4604444,694,-5,"A","America/New_York"
"58","54J","DeFuniak Springs Airport",30.7311111,-86.1537778,289,-6,"A","America/Chicago"
"59","55J","Fernandina Beach Municipal Airport",30.6118333,-81.4611944,16,-5,"A","America/New_York"
"60","55S","Packwood",46.3625,-121.4067,1057,-8,"A","America/Los_Angeles"
"61","57C","East Troy Municipal Airport",42.7971667,-88.3726111,860,-6,"A","America/Chicago"
"62","5B2","Saratoga County Airport",43.050722,-73.861638,433,-5,"A","America/New_York"
"63","60J","Ocean Isle Beach Airport",33.9085056,-78.4366722,32,-5,"U","America/New_York"
"64","6A2","Griffin-Spalding County Airport",33.2269722,-84.2749444,958,-5,"A","America/New_York"
"65","6J4","Saluda County",33.5561,-81.4768,539,-5,"A","America/New_York"
"66","6K8","Tok Junction Airport",63.329444,-142.953611,1639,-9,"A","America/Anchorage"
"67","6S0","Big Timber Airport",45.8063889,-109.9811111,4492,-7,"A","America/Denver"
"68","6S2","Florence",43.9828168,-124.1113687,51,-8,"A","America/Los_Angeles"
"69","6Y8","Welke Airport",45.721111,-85.520278,664,-5,"A","America/New_York"
"70","70J","Cairo-Grady County Airport",30.8879767,-84.1547353,265,-5,"A","America/New_York"
"71","70N","Spring Hill Airport",41.3473569,-75.4158972,1729,-5,"A","America/New_York"
"72","7A4","Foster Field",42.4664444,-90.1693889,990,-6,"A","America/Chicago"
"73","7D9","Germack Airport",41.7778322,-80.9039797,820,-5,"A","America/New_York"
"74","7N7","Spitfire Aerodrome",39.7355633,-75.3977211,40,-5,"A","America/New_York"
"75","8M8","Garland Airport",44.8065278,-84.2761944,1218,-5,"A","America/New_York"
"76","93C","Richland Airport",43.2833575,-90.2982819,742,-6,"A","America/Chicago"
"77","99N","Bamberg County Airport",33.3045278,-81.1084167,231,-5,"A","America/New_York"
"78","9A1","Covington Municipal Airport",33.6323083,-83.8474472,809,-5,"A","America/New_York"
"79","9A5","Barwick Lafayette Airport",34.6884792,-85.2903319,777,-5,"A","America/New_York"
"80","9G1","Rock Airport",40.6035463,-79.8261189,1063,-5,"A","America/New_York"
"81","A39","Phoenix Regional Airport",32.99169921875,-111.920997619629,1300,-7,"A","America/Phoenix"
"82","A50","Colorado Springs East",38.87,-104.41,6145,-7,"A","America/Denver"
"83","AAF","Apalachicola Regional Airport",29.7276066,-85.0274416,20,-5,"A","America/New_York"
"84","AAP","Andrau Airport",29.43,-95.35,80,-6,"A","America/Chicago"
"85","ABE","Lehigh Valley Intl",40.652083,-75.440806,393,-5,"A","America/New_York"
"86","ABI","Abilene Rgnl",32.411319,-99.681897,1791,-6,"A","America/Chicago"
"87","ABL","Ambler Airport",67.106389,-157.8575,334,-9,"A","America/Anchorage"
"88","ABQ","Albuquerque International Sunport",35.0402222,-106.6091944,5355,-7,"A","America/Denver"
"89","ABR","Aberdeen Regional Airport",45.4491,-98.4218,1302,-6,"A","America/Chicago"
"90","ABY","Southwest Georgia Regional Airport",31.5355,-84.1945,197,-5,"A","America/New_York"
"91","ACJ","Jimmy Carter Regional",32.0665,-84.1133,468,-5,"A","America/New_York"
"92","ACK","Nantucket Mem",41.253053,-70.060181,48,-5,"A","America/New_York"
"93","ACT","Waco Rgnl",31.611289,-97.230519,516,-6,"A","America/Chicago"
"94","ACV","Arcata",40.978111,-124.108611,221,-8,"A","America/Los_Angeles"
"95","ACY","Atlantic City Intl",39.457583,-74.577167,75,-5,"A","America/New_York"
"96","ADK","Adak Airport",51.878,-176.646,18,-9,"A","America/Anchorage"
"97","ADM","Ardmore Muni",34.300833,-97.008889,762,-6,"A","America/Chicago"
"98","ADQ","Kodiak",57.749967,-152.493856,78,-9,"A","America/Anchorage"
"99","ADS","Addison",32.9685594,-96.8364478,644,-6,"A","America/Chicago"
"100","ADW","Andrews Afb",38.810806,-76.867028,280,-5,"A","America/New_York"
"101","AET","Allakaket Airport",66.5519,-152.6222,441,-9,"A","America/Anchorage"
"102","AEX","Alexandria Intl",31.3274,-92.549833,89,-6,"A","America/Chicago"
"103","AFE","Kake Airport",56.961389,-133.910278,172,-9,"A","America/Anchorage"
"104","AFW","Fort Worth Alliance Airport",32.987778,-97.318889,722,-6,"A","America/Chicago"
"105","AGC","Allegheny County Airport",40.3544,-79.9302,1252,-5,"A","America/New_York"
"106","AGN","Angoon Seaplane Base",57.503611,-134.585,0,-9,"A","America/Anchorage"
"107","AGS","Augusta Rgnl At Bush Fld",33.369944,-81.9645,144,-5,"A","America/New_York"
"108","AHN","Athens Ben Epps Airport",33.9486,-83.3263,808,-5,"A","America/New_York"
"109","AIA","Alliance Municipal Airport",42.053333,-102.803889,3931,-7,"A","America/Denver"
"110","AIK","Municipal Airport",33.6493889,-81.6850278,529,-5,"A","America/New_York"
"111","AIN","Wainwright Airport",70.638056,-159.994722,41,-9,"A","America/Anchorage"
"112","AIZ","Lee C Fine Memorial Airport",38.096035,-92.5494875,869,-6,"A","America/Chicago"
"113","AKB","Atka Airport",52.220278,-174.206389,56,-9,"A","America/Anchorage"
"114","AKC","Akron Fulton Intl",41.0375,-81.466917,1067,-5,"A","America/New_York"
"115","AKI","Akiak Airport",60.902778,-161.230556,30,-9,"A","America/Anchorage"
"116","AKK","Akhiok Airport",56.938611,-154.1825,44,-9,"A","America/Anchorage"
"117","AKN","King Salmon",58.676778,-156.649278,68,-9,"A","America/Anchorage"
"118","AKP","Anaktuvuk Pass Airport",68.1336,-151.743,2103,-9,"A","America/Anchorage"
"119","ALB","Albany Intl",42.748267,-73.801692,285,-5,"A","America/New_York"
"120","ALI","Alice Intl",27.740889,-98.026944,178,-6,"A","America/Chicago"
"121","ALM","Alamogordo White Sands Regional Airport",32.8399,-105.991,4200,-7,"A","America/Denver"
"122","ALO","Waterloo Regional Airport",42.5571,-92.4003,873,-6,"A","America/Chicago"
"123","ALS","San Luis Valley Regional Airport",37.435,-105.866667,7539,-7,"A","America/Denver"
"124","ALW","Walla Walla Regional Airport",46.0949,-118.288,1191,-8,"A","America/Los_Angeles"
"125","ALX","Alexandria",38.806346,-77.0621,1,-5,"A","America/New_York"
"126","ALZ","Alitak Seaplane Base",56.899444,-154.247778,0,-9,"A","America/Anchorage"
"127","AMA","Rick Husband Amarillo Intl",35.219369,-101.705931,3607,-6,"A","America/Chicago"
"128","ANB","Anniston Metro",33.588167,-85.858111,612,-6,"A","America/Chicago"
"129","ANC","Ted Stevens Anchorage Intl",61.174361,-149.996361,152,-9,"A","America/Anchorage"
"130","AND","Anderson Rgnl",34.494583,-82.709389,782,-5,"A","America/New_York"
"131","ANI","Aniak Airport",61.5816,-159.543,88,-9,"A","America/Anchorage"
"132","ANN","Annette Island",55.042436,-131.572233,119,-9,"A","America/Anchorage"
"133","ANP","Lee Airport",38.942778,-76.568333,34,-5,"A","America/New_York"
"134","ANQ","Tri-State Steuben County Airport",41.6396983,-85.0834933,995,-5,"A","America/New_York"
"135","ANV","Anvik Airport",62.6467,-160.191,309,-9,"A","America/Anchorage"
"136","AOH","Lima Allen County Airport",40.707478,-84.0270781,975,-5,"A","America/New_York"
"137","AOO","Altoona Blair Co",40.296372,-78.320022,1504,-5,"A","America/New_York"
"138","AOS","Amook Bay Seaplane Base",57.471389,-153.815278,0,-9,"A","America/Anchorage"
"139","APA","Centennial",39.570129,-104.849294,5883,-7,"A","America/Denver"
"140","APC","Napa County Airport",38.2131944,-122.2806944,35,-8,"A","America/Los_Angeles"
"141","APF","Naples Muni",26.152619,-81.775294,8,-5,"A","America/New_York"
"142","APG","Phillips Aaf",39.466219,-76.168808,57,-5,"A","America/New_York"
"143","APN","Alpena County Regional Airport",45.0781,-83.5603,689,-5,"A","America/New_York"
"144","AQC","Klawock Seaplane Base",55.554658,-133.101693,0,-9,"A","America/Anchorage"
"145","ARA","Acadiana Rgnl",30.037758,-91.883896,24,-6,"A","America/Chicago"
"146","ARB","Ann Arbor Municipal Airport",42.132274,-83.444418,839,-5,"A","America/New_York"
"147","ARC","Arctic Village Airport",68.1147,-145.579,2092,-9,"A","America/Anchorage"
"148","ART","Watertown Intl",43.991922,-76.021739,325,-5,"A","America/New_York"
"149","ARV","Lakeland",45.927778,-89.730833,1629,-6,"A","America/Chicago"
"150","ASE","Aspen Pitkin County Sardy Field",39.2232,-106.869,7820,-7,"A","America/Denver"
"151","ASH","Boire Field Airport",42.78175,-71.5147778,199,-5,"A","America/New_York"
"152","AST","Astoria Regional Airport",46.157972,-123.878694,15,-8,"A","America/Los_Angeles"
"153","ATK","Atqasuk Edward Burnell Sr Memorial Airport",70.4673,-157.436,96,-9,"A","America/Anchorage"
"154","ATL","Hartsfield Jackson Atlanta Intl",33.636719,-84.428067,1026,-5,"A","America/New_York"
"155","ATT","Camp Mabry Austin City",30.31666,-97.7666,0,-6,"A","America/Chicago"
"156","ATW","Appleton",44.257526,-88.507576,680,-6,"A","America/Chicago"
"157","ATY","Watertown Regional Airport",44.914,-97.1547,1748,-6,"A","America/Chicago"
"158","AUG","Augusta State",44.320647,-69.797317,352,-5,"A","America/New_York"
"159","AUK","Alakanuk Airport",62.68,-164.66,10,-9,"A","America/Anchorage"
"160","AUO","Auburn University Regional",32.3691,-85.2604,777,-6,"A","America/Chicago"
"161","AUS","Austin Bergstrom Intl",30.194528,-97.669889,542,-6,"A","America/Chicago"
"162","AUW","Wausau Downtown Airport",44.9262845,-89.6270018,1201,-6,"U","America/Chicago"
"163","AVL","Asheville Regional Airport",35.436194,-82.541806,2165,-5,"A","America/New_York"
"164","AVO","Executive",27.591389,-81.528889,160,-5,"A","America/New_York"
"165","AVP","Wilkes Barre Scranton Intl",41.338478,-75.723403,962,-5,"A","America/New_York"
"166","AVW","Marana Regional",32.409556,-111.218388,2031,-7,"U","America/Phoenix"
"167","AVX","Avalon",33.405,-118.415833,1602,-8,"A","America/Los_Angeles"
"168","AZA","Phoenix-Mesa Gateway",33.307833,-111.655,1382,-7,"N","America/Phoenix"
"169","AZO","Kalamazoo",42.234875,-85.552058,874,-5,"A","America/New_York"
"170","BAB","Beale Afb",39.136089,-121.436567,113,-8,"A","America/Los_Angeles"
"171","BAD","Barksdale Afb",32.50182,-93.662674,166,-6,"A","America/Chicago"
"172","BAF","Barnes Municipal",42.1579472,-72.715875,270,-5,"A","America/New_York"
"173","BBX","Wings Field",40.1375,-75.265,302,-5,"A","America/New_York"
"174","BCE","Bryce Canyon",37.706444,-112.145806,7590,-7,"A","America/Denver"
"175","BCT","Boca Raton",26.3785,-80.107694,13,-5,"A","America/New_York"
"176","BDE","Baudette Intl",48.728444,-94.612222,1086,-6,"A","America/Chicago"
"177","BDL","Bradley Intl",41.938889,-72.683222,173,-5,"A","America/New_York"
"178","BDR","Igor I Sikorsky Mem",41.163472,-73.126167,9,-5,"A","America/New_York"
"179","BEC","Beech Factory Airport",37.6939167,-97.2149167,1409,-6,"A","America/Chicago"
"180","BED","Laurence G Hanscom Fld",42.469953,-71.289031,133,-5,"A","America/New_York"
"181","BEH","Southwest Michigan Regional Airport",42.1285833,-86.4285,643,-5,"A","America/New_York"
"182","BET","Bethel",60.779778,-161.838,121,-9,"A","America/Anchorage"
"183","BFD","Bradford Regional Airport",41.8031,-78.6401,2143,-5,"A","America/New_York"
"184","BFF","Western Nebraska Regional Airport",41.874,-103.596,3967,-7,"A","America/Denver"
"185","BFI","Boeing Fld King Co Intl",47.53,-122.301947,21,-8,"A","America/Los_Angeles"
"186","BFL","Meadows Fld",35.433598,-119.05677,507,-8,"A","America/Los_Angeles"
"187","BFM","Mobile Downtown",30.626783,-88.068092,26,-6,"A","America/Chicago"
"188","BFP","Beaver Falls",40.7724722,-80.3914444,1253,-5,"A","America/New_York"
"189","BFT","Beaufort",32.477411,-80.723161,37,-5,"A","America/New_York"
"190","BGE","Decatur County Industrial Air Park",30.9715981,-84.6369278,141,-5,"A","America/New_York"
"191","BGM","Greater Binghamton Edwin A Link Fld",42.208689,-75.979839,1636,-5,"A","America/New_York"
"192","BGR","Bangor Intl",44.807444,-68.828139,192,-5,"A","America/New_York"
"193","BHB","Hancock County - Bar Harbor",44.4497689,-68.3615653,83,-5,"A","America/New_York"
"194","BHM","Birmingham Intl",33.562942,-86.75355,644,-6,"A","America/Chicago"
"195","BID","Block Island State Airport",41.168056,-71.577778,108,-5,"A","America/New_York"
"196","BIF","Biggs Aaf",31.849528,-106.380039,3948,-7,"A","America/Denver"
"197","BIG","Allen Aaf",63.994547,-145.721642,1291,-9,"A","America/Anchorage"
"198","BIL","Billings Logan International Airport",45.80921,-108.537654,3652,-7,"A","America/Denver"
"199","BIS","Bismarck Municipal Airport",46.775842,-100.757931,1661,-6,"A","America/Chicago"
"200","BIV","Tulip City Airport",42.7427778,-86.1078333,698,-5,"A","America/New_York"
"201","BIX","Keesler Afb",30.410425,-88.924433,33,-6,"A","America/Chicago"
"202","BJC","Rocky Mountain Metropolitan Airport",39.90888888,-105.11722222,5670,-7,"A","America/Denver"
"203","BJI","Bemidji Regional Airport",47.510722,-94.934722,1391,-6,"A","America/Chicago"
"204","BKC","Buckland Airport",65.981667,-161.149167,31,-9,"A","America/Anchorage"
"205","BKD","Stephens Co",32.719047,-98.891,1284,-6,"A","America/Chicago"
"206","BKF","Buckley Afb",39.701668,-104.75166,5662,-7,"A","America/Denver"
"207","BKG","Branson LLC",36.531994,-93.200556,1302,-6,"A","America/Chicago"
"208","BKH","Barking Sands Pmrf",22.022833,-159.785,23,-10,"A","Pacific/Honolulu"
"209","BKL","Burke Lakefront Airport",41.5175,-81.683333,583,-5,"A","America/New_York"
"210","BKW","Raleigh County Memorial Airport",37.7873,-81.1242,2504,-5,"A","America/New_York"
"211","BKX","Brookings Regional Airport",44.3048,-96.8169,1648,-6,"A","America/Chicago"
"212","BLD","Boulder City Municipal Airport",35.5651,-114.514,2201,-7,"U","America/Phoenix"
"213","BLF","Mercer County Airport",37.2958,-81.2077,2857,-5,"A","America/New_York"
"214","BLH","Blythe Airport",33.619167,-114.716889,399,-8,"A","America/Los_Angeles"
"215","BLI","Bellingham Intl",48.792694,-122.537528,170,-8,"A","America/Los_Angeles"
"216","BLV","Scott Afb Midamerica",38.545178,-89.835183,459,-6,"A","America/Chicago"
"217","BMC","Brigham City",41.552,-112.062,4229,-7,"A","America/Denver"
"218","BMG","Monroe County Airport",39.1460208,-86.6166805,846,-5,"A","America/New_York"
"219","BMI","Central Illinois Rgnl",40.477111,-88.915917,871,-6,"A","America/Chicago"
"220","BMT","Beaumont Municipal",30.0702044,-94.2150967,32,-6,"A","America/Chicago"
"221","BMX","Big Mountain Afs",59.361247,-155.258822,663,-9,"A","America/Anchorage"
"222","BNA","Nashville Intl",36.124472,-86.678194,599,-6,"A","America/Chicago"
"223","BOI","Boise Air Terminal",43.564361,-116.222861,2871,-7,"A","America/Denver"
"224","BOS","General Edward Lawrence Logan Intl",42.364347,-71.005181,19,-5,"A","America/New_York"
"225","BOW","Bartow Municipal Airport",27.9434,-81.7834,125,-5,"U","America/New_York"
"226","BPT","Southeast Texas Rgnl",29.950833,-94.020694,15,-6,"A","America/Chicago"
"227","BQK","Brunswick Golden Isles Airport",31.2588,-81.4665,26,-5,"A","America/New_York"
"228","BRD","Brainerd Lakes Rgnl",46.398308,-94.138078,1226,-6,"U","America/Chicago"
"229","BRL","Southeast Iowa Regional Airport",40.7832,-91.1255,698,-6,"A","America/Chicago"
"230","BRO","Brownsville South Padre Island Intl",25.906833,-97.425861,22,-6,"A","America/Chicago"
"231","BRW","Wiley Post Will Rogers Mem",71.285446,-156.766003,44,-9,"A","America/Anchorage"
"232","BSF","Bradshaw Aaf",19.760056,-155.553717,6190,-10,"A","Pacific/Honolulu"
"233","BTI","Barter Island Lrrs",70.133989,-143.581867,2,-9,"A","America/Anchorage"
"234","BTM","Bert Mooney Airport",45.954806,-112.497472,5550,-7,"A","America/Denver"
"235","BTR","Baton Rouge Metro Ryan Fld",30.533167,-91.149639,70,-6,"A","America/Chicago"
"236","BTT","Bettles",66.913944,-151.529056,644,-9,"A","America/Anchorage"
"237","BTV","Burlington Intl",44.471861,-73.153278,335,-5,"A","America/New_York"
"238","BUF","Buffalo Niagara Intl",42.940525,-78.732167,724,-5,"A","America/New_York"
"239","BUR","Bob Hope",34.200667,-118.358667,778,-8,"A","America/Los_Angeles"
"240","BUU","Municipal Airport",42.6907171,-88.3046825,780,-6,"A","America/Chicago"
"241","BUY","Burlington-Alamance Regional Airport",36.0485433,-79.4748892,617,-5,"A","America/New_York"
"242","BVY","Beverly Municipal Airport",42.584141,-70.9161444,107,-5,"A","America/New_York"
"243","BWD","KBWD",31.7936111,-98.9565,1387,-6,"A","America/Chicago"
"244","BWG","Bowling Green-Warren County Regional Airport",36.9645278,-86.4196667,547,-6,"A","America/Chicago"
"245","BWI","Baltimore Washington Intl",39.175361,-76.668333,146,-5,"A","America/New_York"
"246","BXK","Buckeye Municipal Airport",33.420417,-112.68618,1033,-7,"U","America/Phoenix"
"247","BXS","Borrego Valley Airport",33.2590278,-116.3209722,520,-8,"A","America/Los_Angeles"
"248","BYH","Arkansas Intl",35.964347,-89.943956,254,-6,"A","America/Chicago"
"249","BYS","Bicycle Lake Aaf",35.280531,-116.630031,2350,-8,"A","America/Los_Angeles"
"250","BYW","Blakely Island Airport",48.56025,-122.80243,0,-8,"A","America/Los_Angeles"
"251","BZN","Gallatin Field",45.777643,-111.160151,4500,-7,"A","America/Denver"
"252","C02","Grand Geneva Resort Airport",42.6149167,-88.3895833,835,-6,"U","America/Chicago"
"253","C16","Frasca Field",40.144979,-88.200197,735,-6,"A","America/Chicago"
"254","C47","Portage Municipal Airport",43.5603136,-89.4828607,825,-6,"U","America/Chicago"
"255","C65","Plymouth Municipal Airport",41.3651307,-86.3002574,800,-5,"A","America/New_York"
"256","C89","Sylvania Airport",42.70325,-87.9589722,785,-6,"A","America/Chicago"
"257","C91","Dowagiac Municipal Airport",41.9929342,-86.1280125,748,-5,"U","America/New_York"
"258","CAE","Columbia Metropolitan",33.938833,-81.119528,236,-5,"A","America/New_York"
"259","CAK","Akron Canton Regional Airport",40.9160833,-81.4421944,1228,-5,"A","America/New_York"
"260","CAR","Caribou Muni",46.8715,-68.017917,626,-5,"A","America/New_York"
"261","CBE","Greater Cumberland Rgnl.",39.615278,-78.760556,775,-5,"A","America/New_York"
"262","CBM","Columbus Afb",33.643833,-88.443833,219,-6,"A","America/Chicago"
"263","CCO","Coweta County Airport",33.3115656,-84.7697554,970,-5,"A","America/New_York"
"264","CCR","Buchanan Field Airport",37.9896667,-122.0568889,26,-8,"A","America/Los_Angeles"
"265","CDB","Cold Bay",55.206061,-162.725436,96,-9,"A","America/Anchorage"
"266","CDC","Cedar City Rgnl",37.700967,-113.098847,5622,-7,"A","America/Denver"
"267","CDI","Cambridge Municipal Airport",39.9750278,-81.5775833,799,-5,"U","America/New_York"
"268","CDK","CedarKey",29.1342222,-83.0504722,11,-5,"A","America/New_York"
"269","CDN","Woodward Field",34.2835833,-80.5648611,302,-5,"A","America/New_York"
"270","CDR","Chadron Municipal Airport",42.8375,-103.095556,3297,-7,"A","America/Denver"
"271","CDS","Childress Muni",34.433781,-100.287992,1954,-6,"A","America/Chicago"
"272","CDV","Merle K Mudhole Smith",60.491778,-145.477556,48,-9,"A","America/Anchorage"
"273","CDW","Caldwell Essex County Airport",40.8752222,-74.2813611,172,-5,"A","America/New_York"
"274","CEC","Del Norte County Airport",41.7802,-124.237,57,-8,"A","America/Los_Angeles"
"275","CEF","Westover Arb Metropolitan",42.194014,-72.534783,241,-5,"A","America/New_York"
"276","CEM","Central Airport",65.573889,-144.780833,937,-9,"A","America/Anchorage"
"277","CEU","Clemson",34.6722222,-82.8858889,891,-5,"A","America/New_York"
"278","CEW","Bob Sikes",30.778833,-86.522111,213,-6,"A","America/Chicago"
"279","CEZ","Cortez Muni",37.303,-108.628056,5918,-7,"A","America/Denver"
"280","CFD","Coulter Fld",30.715694,-96.331361,367,-6,"A","America/Chicago"
"281","CGA","Craig Seaplane Base",55.478889,-133.147778,0,-9,"A","America/Anchorage"
"282","CGC","Crystal River",28.8676111,-82.5741111,9,-5,"A","America/New_York"
"283","CGF","Cuyahoga County",41.565124,-81.4863555,879,-5,"A","America/New_York"
"284","CGI","Cape Girardeau Regional Airport",37.2253,-89.5708,342,-6,"A","America/Chicago"
"285","CGX","Meigs Field",41.860278,-87.609722,585,-6,"A","America/Chicago"
"286","CGZ","Casa Grande Municipal Airport",32.954889,-111.766832,1464,-7,"U","America/Phoenix"
"287","CHA","Lovell Fld",35.035278,-85.203808,683,-5,"A","America/New_York"
"288","CHI","All Airports",41.883611,-87.631667,596,-6,"A","America/Chicago"
"289","CHO","Charlottesville-Albemarle",38.138639,-78.452861,639,-5,"A","America/New_York"
"290","CHS","Charleston Afb Intl",32.898647,-80.040528,45,-5,"A","America/New_York"
"291","CHU","Chuathbaluk Airport",61.579167,-159.215556,243,-9,"A","America/Anchorage"
"292","CIC","Chico Muni",39.795383,-121.858422,238,-8,"A","America/Los_Angeles"
"293","CID","Cedar Rapids",41.884694,-91.710806,869,-6,"A","America/Chicago"
"294","CIK","Chalkyitsik Airport",66.645,-143.74,544,-9,"A","America/Anchorage"
"295","CIL","Council Airport",64.897778,-163.703333,85,-9,"A","America/Anchorage"
"296","CIU","Chippewa County International Airport",46.2508,-84.4724,800,-5,"A","America/New_York"
"297","CKB","Harrison Marion Regional Airport",39.2966,-80.2281,1217,-5,"A","America/New_York"
"298","CKD","Crooked Creek Airport",61.867778,-158.135,178,-9,"A","America/Anchorage"
"299","CKF","Crisp County Cordele Airport",31.9888333,-83.7739167,310,-5,"A","America/New_York"
"300","CKV","Clarksville-Montgomery County Regional Airport",36.621944,-87.415,550,-6,"A","America/Chicago"
"301","CLC","Clear Lake Metroport",29.5569,-95.137497,35,-6,"A","America/Chicago"
"302","CLD","McClellan-Palomar Airport",33.0742,-117.1648,328,-8,"A","America/Los_Angeles"
"303","CLE","Cleveland Hopkins Intl",41.411689,-81.849794,791,-5,"A","America/New_York"
"304","CLL","Easterwood Fld",30.588583,-96.363833,321,-6,"A","America/Chicago"
"305","CLM","William R Fairchild International Airport",48.1202,-123.5,291,-8,"A","America/Los_Angeles"
"306","CLS","Chehalis-Centralia",46.4062,-122.5897,177,-8,"A","America/Los_Angeles"
"307","CLT","Charlotte Douglas Intl",35.214,-80.943139,748,-5,"A","America/New_York"
"308","CLW","Clearwater Air Park",27.9764722,-82.7586667,70,-5,"A","America/New_York"
"309","CMH","Port Columbus Intl",39.997972,-82.891889,815,-5,"A","America/New_York"
"310","CMI","Champaign",40.03925,-88.278056,754,-6,"A","America/Chicago"
"311","CMX","Houghton County Memorial Airport",47.1684,-88.4891,1095,-5,"A","America/New_York"
"312","CNM","Cavern City Air Terminal",32.337472,-104.263278,3295,-7,"A","America/Denver"
"313","CNW","Tstc Waco",31.637831,-97.074139,470,-6,"A","America/Chicago"
"314","CNY","Canyonlands Field",38.755,-109.754722,4555,-7,"A","America/Denver"
"315","COD","Yellowstone Rgnl",44.520194,-109.023806,5102,-7,"A","America/Denver"
"316","COE","Pappy Boyington",47.7743056,-116.8195833,2320,-8,"A","America/Los_Angeles"
"317","COF","Patrick Afb",28.234922,-80.610125,8,-5,"A","America/New_York"
"318","COI","Merritt Island Airport",28.3416111,-80.6854722,6,-5,"A","America/New_York"
"319","CON","Concord Municipal",43.20267,-71.50233,342,-5,"A","America/New_York"
"320","COS","City Of Colorado Springs Muni",38.805805,-104.700778,6187,-7,"A","America/Denver"
"321","COT","Cotulla Lasalle Co",28.456694,-99.220294,474,-6,"A","America/Chicago"
"322","COU","Columbia Rgnl",38.818094,-92.219631,889,-6,"A","America/Chicago"
"323","CPR","Natrona Co Intl",42.908,-106.464417,5347,-7,"A","America/Denver"
"324","CPS","St. Louis Downtown Airport",38.5707244,-90.1562211,413,-6,"U","America/Chicago"
"325","CRE","Grand Strand Airport",33.81175,-78.7239444,31,-5,"A","America/New_York"
"326","CRP","Corpus Christi Intl",27.770361,-97.501222,44,-6,"A","America/Chicago"
"327","CRW","Yeager",38.373147,-81.593189,981,-5,"A","America/New_York"
"328","CSG","Columbus Metropolitan Airport",32.5163333,-84.9388611,397,-5,"A","America/New_York"
"329","CTB","Cut Bank Muni",48.608353,-112.376144,3854,-7,"A","America/Denver"
"330","CTH","Chester County G O Carlson Airport",39.9789,-75.8654,660,-5,"A","America/New_York"
"331","CTJ","West Georgia Regional Airport - O V Gray Field",33.6316964,-85.1522641,1165,-5,"A","America/New_York"
"332","CTY","Cross City",29.6355278,-83.10475,42,-5,"A","America/New_York"
"333","CVG","Cincinnati Northern Kentucky Intl",39.048836,-84.667822,896,-5,"A","America/New_York"
"334","CVN","Clovis Muni",34.425139,-103.079278,4216,-7,"A","America/Denver"
"335","CVO","Corvallis Muni",44.5067,-123.2915,250,-8,"A","America/Los_Angeles"
"336","CVS","Cannon Afb",34.382775,-103.322147,4295,-7,"A","America/Denver"
"337","CVX","Charlevoix Municipal Airport",45.3047778,-85.2753333,669,-5,"A","America/New_York"
"338","CWA","Central Wisconsin",44.772726,-89.646635,840,-6,"A","America/Chicago"
"339","CWI","Clinton Municipal",41.83075,-90.3289722,708,-6,"A","America/Chicago"
"340","CWT","Chatsworth Station",34.256944,-118.598889,978,-8,"A","America/Los_Angeles"
"341","CXF","Coldfoot Airport",67.251389,-150.176111,1014,-9,"A","America/Anchorage"
"342","CXL","Calexico Intl",32.669502,-115.51333,4,-8,"A","America/Los_Angeles"
"343","CXO","Lone Star Executive",30.351833,-95.414467,245,-6,"A","America/Chicago"
"344","CXY","Capital City Airport",40.2171389,-76.8513611,347,-5,"A","America/New_York"
"345","CYF","Chefornak Airport",60.149167,-164.285556,40,-9,"A","America/Anchorage"
"346","CYM","Chatham Seaplane Base",57.515,-134.946111,0,-9,"A","America/Anchorage"
"347","CYS","Cheyenne Rgnl Jerry Olson Fld",41.155722,-104.811839,6156,-7,"A","America/Denver"
"348","CYT","Yakataga Airport",60.081901,-142.493611,12,-9,"A","America/Anchorage"
"349","CZF","Cape Romanzof Lrrs",61.780297,-166.038747,457,-9,"A","America/Anchorage"
"350","CZG","Tri-Cities",42.0471,-76.0578,833,-5,"A","America/New_York"
"351","CZN","Chisana Airport",62.071111,-142.048333,1011,-9,"A","America/Anchorage"
"352","DAB","Daytona Beach Intl",29.179917,-81.058056,34,-5,"A","America/New_York"
"353","DAL","Dallas Love Fld",32.847111,-96.851778,487,-6,"A","America/Chicago"
"354","DAW","Skyhaven Airport",43.2840556,-70.9292778,321,-5,"A","America/New_York"
"355","DAY","James M Cox Dayton Intl",39.902375,-84.219375,1009,-5,"A","America/New_York"
"356","DBN","W H Barron Field",32.3388,-82.591,311,-5,"A","America/New_York"
"357","DBQ","Dubuque Rgnl",42.402,-90.709472,1076,-6,"A","America/Chicago"
"358","DCA","Ronald Reagan Washington Natl",38.852083,-77.037722,15,-5,"A","America/New_York"
"359","DDC","Dodge City Regional Airport",37.7634,-99.9656,2594,-6,"A","America/Chicago"
"360","DEC","Decatur",39.834564,-88.865689,682,-6,"A","America/Chicago"
"361","DEN","Denver Intl",39.861656,-104.673178,5431,-7,"A","America/Denver"
"362","DET","Coleman A Young Muni",42.409195,-83.009861,626,-5,"A","America/New_York"
"363","DFW","Dallas Fort Worth Intl",32.896828,-97.037997,607,-6,"A","America/Chicago"
"364","DGL","Douglas Municipal Airport",31.3426028,-109.5064544,4173,-7,"N","America/Phoenix"
"365","DHB","Deer Harbor Seaplane",48.618397,-123.00596,0,-8,"A","America/Los_Angeles"
"366","DHN","Dothan Rgnl",31.321339,-85.449628,401,-6,"A","America/Chicago"
"367","DHT","Dalhart Muni",36.022586,-102.547278,3991,-6,"A","America/Chicago"
"368","DIK","Dickinson Theodore Roosevelt Regional Airport",46.7975,-102.801944,2592,-7,"A","America/Denver"
"369","DKB","De Kalb Taylor Municipal Airport",41.9338342,-88.7056864,914,-6,"U","America/Chicago"
"370","DKK","Chautauqua County-Dunkirk Airport",42.4933353,-79.2720417,693,-5,"A","America/New_York"
"371","DKX","Knoxville Downtown Island Airport",35.9638333,-83.8736667,833,-5,"A","America/New_York"
"372","DLF","Laughlin Afb",29.359486,-100.777975,1082,-6,"A","America/Chicago"
"373","DLG","Dillingham",59.044667,-158.5055,74,-9,"A","America/Anchorage"
"374","DLH","Duluth Intl",46.842091,-92.193649,1428,-6,"A","America/Chicago"
"375","DLL","Baraboo Wisconsin Dells Airport",43.5217843,-89.7709266,979,-6,"A","America/Chicago"
"376","DMA","Davis Monthan Afb",32.166467,-110.883144,2704,-7,"A","America/Phoenix"
"377","DNL","Daniel Field Airport",33.4665028,-82.0393808,423,-5,"A","America/New_York"
"378","DNN","Dalton Municipal Airport",34.7229444,-84.87025,709,-5,"A","America/New_York"
"379","DNV","Vermilion Regional",40.1996944,-87.5955278,696,-6,"A","America/Chicago"
"380","DOV","Dover Afb",39.129539,-75.465958,28,-5,"A","America/New_York"
"381","DPA","Dupage",41.907778,-88.248611,758,-6,"A","America/Chicago"
"382","DQH","Douglas Municipal Airport",31.4767385,-82.8605664,257,-5,"A","America/New_York"
"383","DRG","Deering Airport",66.0696,-162.766,21,-9,"A","America/Anchorage"
"384","DRI","Beauregard Rgnl",30.831722,-93.339917,202,-6,"A","America/Chicago"
"385","DRM","Drummond Island Airport",46.0093114,-83.7439342,668,-5,"A","America/New_York"
"386","DRO","Durango La Plata Co",37.151516,-107.75377,6685,-7,"A","America/Denver"
"387","DRT","Del Rio Intl",29.374208,-100.927158,1002,-6,"A","America/Chicago"
"388","DSM","Des Moines Intl",41.533972,-93.663083,958,-6,"A","America/Chicago"
"389","DTA","Delta Municipal Airport",39.3806386,-112.5077147,4759,-7,"A","America/Denver"
"390","DTS","Destin",30.4000611,-86.4714772,23,-6,"A","America/Chicago"
"391","DTW","Detroit Metro Wayne Co",42.212444,-83.353389,645,-5,"A","America/New_York"
"392","DUC","Halliburton Field Airport",34.4713056,-97.9598611,1114,-6,"A","America/Chicago"
"393","DUG","Bisbee Douglas Intl",31.469028,-109.603667,4154,-7,"A","America/Phoenix"
"394","DUJ","DuBois Regional Airport",41.1783,-78.8987,1817,-5,"A","America/New_York"
"395","DUT","Unalaska",53.900139,-166.5435,22,-9,"A","America/Anchorage"
"396","DVL","Devils Lake Regional Airport",48.114444,-98.908611,1445,-6,"A","America/Chicago"
"397","DVT","Deer Valley Municipal Airport",33.4117,112.457,1478,8,"A","Asia/Chongqing"
"398","DWA","Yolo County Airport",38.5793889,-121.8569444,100,-8,"A","America/Los_Angeles"
"399","DWH","David Wayne Hooks Field",30.063746,-95.554276,152,-6,"A","America/Chicago"
"400","DWS","Orlando",28.398,-81.57,340,-5,"A","America/New_York"
"401","DXR","Danbury Municipal Airport",41.3715353,-73.4821906,458,-5,"A","America/New_York"
"402","DYS","Dyess Afb",32.420756,-99.8546,1789,-6,"A","America/Chicago"
"403","E25","Wickenburg Municipal Airport",33.96889877,-112.7990036,2377,-7,"A","America/Phoenix"
"404","E51","Bagdad Airport",34.5958528,-113.170195,4183,-7,"A","America/Phoenix"
"405","E55","Ocean Ridge Airport",38.8016111,-123.5306389,940,-8,"A","America/Los_Angeles"
"406","E63","Gila Bend Municipal Airport",32.960169,-112.673636,789,-7,"U","America/Phoenix"
"407","E91","Chinle Municipal Airport",36.1108806,-109.5754222,5547,-7,"N","America/Denver"
"408","EAA","Eagle Airport",64.778056,-141.149722,908,-9,"A","America/Anchorage"
"409","EAR","Kearney Municipal Airport",40.727,-99.0068,2131,-6,"A","America/Chicago"
"410","EAT","Pangborn Field",47.398,-120.206,1249,-8,"A","America/Los_Angeles"
"411","EAU","Chippewa Valley Regional Airport",44.8658,-91.4843,913,-6,"A","America/Chicago"
"412","ECA","Iosco County",44.311,-83.422,606,-5,"A","America/New_York"
"413","ECG","Elizabeth City Cgas Rgnl",36.260581,-76.174572,12,-5,"A","America/New_York"
"414","ECP","Panama City-NW Florida Bea.",30.3417,-85.7973,69,-6,"A","America/Chicago"
"415","EDF","Elmendorf Afb",61.250986,-149.806503,212,-9,"A","America/Anchorage"
"416","EDW","Edwards Afb",34.905417,-117.883739,2302,-8,"A","America/Los_Angeles"
"417","EEK","Eek Airport",60.213611,-162.043889,15,-9,"A","America/Anchorage"
"418","EEN","Dillant Hopkins Airport",72.270833,42.898333,149,-5,"A",NA
"419","EET","Shelby County Airport",33.1777778,-86.7832222,586,-6,"A","America/Chicago"
"420","EFD","Ellington Fld",29.607333,-95.15875,32,-6,"A","America/Chicago"
"421","EGA","Eagle County Airport",39.6427611,-106.9159347,6548,-7,"U","America/Denver"
"422","EGE","Eagle Co Rgnl",39.642556,-106.917694,6540,-7,"A","America/Denver"
"423","EGT","Wellington Municipal",37.39411,-97.423225,1277,-6,"A","America/Chicago"
"424","EGV","Eagle River",45.932333,-89.268283,1642,-6,"A","America/Chicago"
"425","EGX","Egegik Airport",58.185556,-157.375556,92,-9,"A","America/Anchorage"
"426","EHM","Cape Newenham Lrrs",58.646428,-162.062778,541,-9,"A","America/Anchorage"
"427","EIL","Eielson Afb",64.665667,-147.1015,548,-9,"A","America/Anchorage"
"428","EKI","Elkhart Municipal",41.719444,-86.003333,778,-5,"A","America/New_York"
"429","EKN","Elkins Randolph Co Jennings Randolph",38.889444,-79.857139,1987,-5,"A","America/New_York"
"430","EKO","Elko Regional Airport",40.8249,-115.792,5140,-8,"A","America/Los_Angeles"
"431","EKY","Bessemer",33.1876,-86.5558,700,-6,"A","America/Chicago"
"432","ELD","South Arkansas Rgnl At Goodwin Fld",33.220972,-92.813278,277,-6,"A","America/Chicago"
"433","ELI","Elim Airport",64.615,-162.270556,162,-9,"A","America/Anchorage"
"434","ELM","Elmira Corning Rgnl",42.159889,-76.891611,954,-5,"A","America/New_York"
"435","ELP","El Paso Intl",31.80725,-106.377583,3958,-7,"A","America/Denver"
"436","ELV","Elfin Cove Seaplane Base",58.195278,-136.3475,0,-9,"A","America/Anchorage"
"437","ELY","Ely Airport",39.299722,-114.841944,6259,-8,"A","America/Los_Angeles"
"438","EMK","Emmonak Airport",62.786111,-164.490833,13,-9,"A","America/Anchorage"
"439","EMP","Emporia Municipal Airport",38.3321,-96.1912,1208,-6,"A","America/Chicago"
"440","ENA","Kenai Muni",60.573111,-151.245,99,-9,"A","America/Anchorage"
"441","END","Vance Afb",36.339167,-97.9165,1307,-6,"A","America/Chicago"
"442","ENV","Wendover",40.718694,-114.030889,4237,-7,"A","America/Denver"
"443","ENW","Kenosha Regional Airport",42.5956944,-87.9278056,742,-6,"A","America/Chicago"
"444","EOK","Keokuk Municipal Airport",40.4599078,-91.4285011,671,-6,"A","America/Chicago"
"445","EPM","Eastport Municipal Airport",44.9101111,-67.0126944,45,-5,"A","America/New_York"
"446","EQY","Monroe Reqional Airport",35.01833,-80.62001,679,-5,"A","America/New_York"
"447","ERI","Erie Intl Tom Ridge Fld",42.082022,-80.176217,733,-5,"A","America/New_York"
"448","ERV","Kerrville Municipal Airport",29.9766667,-99.0854722,1617,-6,"A","America/Chicago"
"449","ERY","Luce County Airport",46.311199,-85.457298,869,-5,"A","America/New_York"
"450","ESC","Delta County Airport",45.722778,-87.093611,609,-5,"A","America/New_York"
"451","ESD","Orcas Island Airport",48.708056,-122.910556,31,-8,"A","America/Los_Angeles"
"452","ESF","Esler Rgnl",31.394903,-92.295772,112,-6,"A","America/Chicago"
"453","ESN","Easton-Newnam Field Airport",38.8041667,-76.069,72,-5,"A","America/New_York"
"454","EUF","Weedon Field",31.5708,-85.0774,285,-6,"A","America/Chicago"
"455","EUG","Mahlon Sweet Fld",44.124583,-123.211972,374,-8,"A","America/Los_Angeles"
"456","EVV","Evansville Regional",38.036997,-87.532364,418,-6,"A","America/Chicago"
"457","EVW","Evanston-Uinta CO Burns Fld",41.1649,-111.0208,7143,-7,"A","America/Denver"
"458","EWB","New Bedford Regional Airport",41.6761,-70.9569,80,-5,"A","America/New_York"
"459","EWK","Newton City-County Airport",38.0570785,-97.2752278,1533,-6,"A","America/Chicago"
"460","EWN","Craven Co Rgnl",35.072972,-77.042944,18,-5,"A","America/New_York"
"461","EWR","Newark Liberty Intl",40.6925,-74.168667,18,-5,"A","America/New_York"
"462","EXI","Excursion Inlet Seaplane Base",58.420556,-135.449167,0,-9,"A","America/Anchorage"
"463","EYW","Key West Intl",24.556111,-81.759556,3,-5,"A","America/New_York"
"464","F57","Seaplane Base",28.0575,-81.7628056,140,-5,"A","America/New_York"
"465","FAF","Felker Aaf",37.1325,-76.608841,12,-5,"A","America/New_York"
"466","FAI","Fairbanks Intl",64.815114,-147.856267,434,-9,"A","America/Anchorage"
"467","FAR","Hector International Airport",46.92065,-96.8157639,902,-6,"A","America/Chicago"
"468","FAT","Fresno Yosemite Intl",36.776194,-119.71814,336,-8,"A","America/Los_Angeles"
"469","FAY","Fayetteville Regional Grannis Field",34.9912,-78.8803,189,-5,"A","America/New_York"
"470","FBG","Fredericksburg Amtrak Station",38.298416,-77.456875,130,-5,"A","America/New_York"
"471","FBK","Ladd Aaf",64.8375,-147.614444,454,-9,"A","America/Anchorage"
"472","FBR","Fort Bridger",41.236,-110.2436,7038,-7,"A","America/Denver"
"473","FBS","Friday Harbor Seaplane Base",48.537222,-123.009722,0,-8,"A","America/Los_Angeles"
"474","FCA","Glacier Park Intl",48.310472,-114.256,2977,-7,"A","America/Denver"
"475","FCM","Flying Cloud Airport",44.4938,-93.2726,906,-6,"A","America/Chicago"
"476","FCS","Butts Aaf",38.678394,-104.756581,5838,-7,"A","America/Denver"
"477","FDW","Fairfield County Airport",34.315472,-81.108806,577,-5,"A","America/New_York"
"478","FDY","Findlay Airport",41.0120278,-83.6686111,819,-5,"U","America/New_York"
"479","FFA","First Flight Airport",36.02,-75.67,13,-5,"A","America/New_York"
"480","FFC","Atlanta Regional Airport - Falcon Field",33.35725,-84.5718333,808,-5,"A","America/New_York"
"481","FFO","Wright Patterson Afb",39.826111,-84.048332,823,-5,"A","America/New_York"
"482","FFT","Capital City Airport",38.1819722,-84.9061389,812,-5,"A","America/New_York"
"483","FFZ","Mesa Falcon Field",33.4608001708984,-111.727996826172,1394,-7,"A","America/Phoenix"
"484","FHU","Sierra Vista Muni Libby Aaf",31.588472,-110.344389,4719,-7,"A","America/Phoenix"
"485","FIT","Fitchburg Municipal Airport",42.5541111,-71.7589722,348,-5,"A","America/New_York"
"486","FKL","Franklin",41.377874,-79.860362,1540,-5,"A","America/New_York"
"487","FLD","Fond Du Lac County Airport",43.7711667,-88.4884167,808,-6,"A","America/Chicago"
"488","FLG","Flagstaff Pulliam Airport",35.140318,-111.6692392,7015,-7,"N","America/Phoenix"
"489","FLL","Fort Lauderdale Hollywood Intl",26.072583,-80.15275,9,-5,"A","America/New_York"
"490","FLO","Florence Rgnl",34.185361,-79.723889,146,-5,"A","America/New_York"
"491","FLV","Sherman Aaf",39.368332,-94.914686,772,-6,"A","America/Chicago"
"492","FME","Tipton",39.085386,-76.759414,150,-5,"A","America/New_York"
"493","FMH","Otis Angb",41.658439,-70.521417,131,-5,"A","America/New_York"
"494","FMN","Four Corners Rgnl",36.74125,-108.229944,5506,-7,"A","America/Denver"
"495","FMY","Page Fld",26.586611,-81.86325,17,-5,"A","America/New_York"
"496","FNL","Fort Collins Loveland Muni",40.451828,-105.011336,5016,-7,"A","America/Denver"
"497","FNR","Funter Bay Seaplane Base",58.254444,-134.897778,0,-9,"A","America/Anchorage"
"498","FNT","Bishop International",42.965424,-83.743629,782,-5,"A","America/New_York"
"499","FOD","Fort Dodge Rgnl",42.5512,-94.191842,1157,-6,"A","America/Chicago"
"500","FOE","Forbes Fld",38.950944,-95.663611,1078,-6,"A","America/Chicago"
"501","FOK","Francis S Gabreski",40.843656,-72.631789,67,-5,"A","America/New_York"
"502","FRD","Friday Harbor Airport",48.521944,-123.024444,113,-8,"A","America/Los_Angeles"
"503","FRI","Marshall Aaf",39.055275,-96.764453,1063,-6,"A","America/Chicago"
"504","FRN","Bryant Ahp",61.266381,-149.653119,378,-9,"A","America/Anchorage"
"505","FRP","St Lucie County International Airport",27.497472,-80.372638,23,-5,"A","America/New_York"
"506","FSD","Sioux Falls",43.582014,-96.741914,1429,-6,"A","America/Chicago"
"507","FSI","Henry Post Aaf",34.649833,-98.402167,1189,-6,"A","America/Chicago"
"508","FSM","Fort Smith Rgnl",35.336583,-94.367444,469,-6,"A","America/Chicago"
"509","FST","Fort Stockton Pecos Co",30.915667,-102.916139,3011,-6,"A","America/Chicago"
"510","FTK","Godman Aaf",37.907058,-85.972106,756,-5,"A","America/New_York"
"511","FTW","Fort Worth Meacham Intl",32.819778,-97.362444,710,-6,"A","America/Chicago"
"512","FTY","Fulton County Airport Brown Field",33.7791,-84.5214,841,-5,"A","America/New_York"
"513","FUL","Fullerton Municipal Airport",33.521925,-117.584722,96,-8,"A","America/Los_Angeles"
"514","FWA","Fort Wayne",40.978472,-85.195139,815,-5,"A","America/New_York"
"515","FXE","Fort Lauderdale Executive",26.197281,-80.170706,13,-5,"A","America/New_York"
"516","FYU","Fort Yukon",66.571492,-145.250417,433,-9,"A","America/Anchorage"
"517","FYV","Drake Fld",36.005094,-94.170059,1251,-6,"A","America/Chicago"
"518","FZG","Fitzgerald Municipal Airport",31.6839046,-83.2709036,365,-5,"A","America/New_York"
"519","FZI","Fostoria Metropolitan Airport",41.1908333,-83.3930833,752,-5,"A","America/New_York"
"520","GAD","Northeast Alabama Regional Airport",33.9726489,-86.0890834,569,-6,"A","America/Chicago"
"521","GAI","Montgomery County Airpark",39.1006,-77.09576,0,-5,"A","America/New_York"
"522","GAL","Edward G Pitka Sr",64.736178,-156.937417,152,-9,"A","America/Anchorage"
"523","GAM","Gambell Airport",63.7668,-171.733,27,-9,"A","America/Anchorage"
"524","GBN","Great Bend Municipal",38.344167,-98.859167,1887,-6,"A","America/Chicago"
"525","GCC","Gillette-Campbell County Airport",44.3489167,-105.5393611,4365,-7,"A","America/Denver"
"526","GCK","Garden City Rgnl",37.927528,-100.724417,2891,-6,"A","America/Chicago"
"527","GCN","Grand Canyon National Park Airport",35.9523611,-112.1469722,6609,-7,"N","America/Phoenix"
"528","GCW","Grand Canyon West Airport",35.5925,-113.4859,4825,-7,"U","America/Phoenix"
"529","GDV","Dawson Community Airport",47.138611,-104.807222,749,-7,"A","America/Denver"
"530","GDW","Gladwin Zettel Memorial Airport",43.9705893,-84.47502,774,-5,"A","America/New_York"
"531","GED","Sussex Co",38.689194,-75.358889,50,-5,"A","America/New_York"
"532","GEG","Spokane Intl",47.619861,-117.533833,2376,-8,"A","America/Los_Angeles"
"533","GEU","Glendale Municipal Airport",33.5269167,-112.2951389,1071,-7,"N","America/Phoenix"
"534","GFK","Grand Forks Intl",47.949256,-97.176111,845,-6,"A","America/Chicago"
"535","GFL","Floyd Bennett Memorial Airport",43.341222,-73.610305,328,-5,"A","America/New_York"
"536","GGE","Georgetown County Airport",33.3114018,-79.3203139,40,-5,"A","America/New_York"
"537","GGG","East Texas Rgnl",32.384014,-94.711486,365,-6,"A","America/Chicago"
"538","GGW","Wokal Field Glasgow International Airport",48.2125,-106.615,2296,-7,"A","America/Denver"
"539","GHG","Marshfield Municipal Airport",42.09825,-70.6721389,9,-5,"A","America/New_York"
"540","GIF","Gilbert Airport",28.062778,-81.753333,145,-5,"A","America/New_York"
"541","GJT","Grand Junction Regional",39.122413,-108.526735,4858,-7,"A","America/Denver"
"542","GKN","Gulkana",62.154888,-145.456639,1580,-9,"A","America/Anchorage"
"543","GKY","Arlington Municipal",32.6638611,-97.0942778,628,-6,"A","America/Chicago"
"544","GLD","Renner Fld",39.370621,-101.698992,3656,-7,"A","America/Denver"
"545","GLH","Mid Delta Regional Airport",33.4829,-90.9856,131,-6,"A","America/Chicago"
"546","GLS","Scholes Intl At Galveston",29.265322,-94.860406,6,-6,"A","America/Chicago"
"547","GLV","Golovin Airport",64.550556,-163.007222,59,-9,"A","America/Anchorage"
"548","GNT","Grants Milan Muni",35.167286,-107.901989,6537,-7,"A","America/Denver"
"549","GNU","Goodnews Airport",59.1175,-161.5775,15,-9,"A","America/Anchorage"
"550","GNV","Gainesville Rgnl",29.690056,-82.271778,152,-5,"A","America/New_York"
"551","GON","Groton New London",41.330056,-72.045139,9,-5,"A","America/New_York"
"552","GPT","Gulfport-Biloxi",30.407278,-89.070111,28,-6,"A","America/Chicago"
"553","GPZ","Grand Rapids Itasca County",47.211111,-93.509722,413,-6,"A","America/Chicago"
"554","GQQ","Galion Municipal Airport",40.7533889,-82.7238056,1224,-5,"A","America/New_York"
"555","GRB","Austin Straubel Intl",44.485072,-88.129589,695,-6,"A","America/Chicago"
"556","GRF","Gray Aaf",47.079217,-122.580783,302,-8,"A","America/Los_Angeles"
"557","GRI","Central Nebraska Regional Airport",40.9675,-98.3096,1847,-6,"A","America/Chicago"
"558","GRK","Robert Gray Aaf",31.06725,-97.828917,1015,-6,"A","America/Chicago"
"559","GRM","Grand Marais Cook County Airport",47.8383333,-90.3829444,1799,-6,"U","America/Chicago"
"560","GRR","Gerald R Ford Intl",42.880833,-85.522806,794,-5,"A","America/New_York"
"561","GSB","Seymour Johnson Afb",35.339383,-77.960589,110,-5,"A","America/New_York"
"562","GSO","Piedmont Triad",36.09775,-79.937306,925,-5,"A","America/New_York"
"563","GSP","Greenville-Spartanburg International",34.895556,-82.218889,964,-5,"A","America/New_York"
"564","GST","Gustavus Airport",58.4253,-135.707,34,-9,"A","America/Anchorage"
"565","GTB","Wheeler Sack Aaf",44.055619,-75.719458,690,-5,"A","America/New_York"
"566","GTF","Great Falls Intl",47.482,-111.370689,3677,-7,"A","America/Denver"
"567","GTR","Golden Triangle Regional Airport",33.450333,-88.591361,264,-6,"A","America/Chicago"
"568","GTU","Georgetown Municipal Airport",30.678809,-97.6793837,790,-6,"A","America/Chicago"
"569","GUC","Gunnison - Crested Butte",38.533889,-106.933056,7678,-7,"A","America/Denver"
"570","GUP","Gallup Muni",35.511058,-108.789308,6472,-7,"A","America/Denver"
"571","GUS","Grissom Arb",40.648094,-86.152119,812,-5,"A","America/New_York"
"572","GVL","Lee Gilmer Memorial Airport",34.272627,-83.8302233,1276,-5,"A","America/New_York"
"573","GVQ","Genesee County Airport",43.03175,-78.1696667,914,-5,"A","America/New_York"
"574","GVT","Majors",33.067839,-96.065333,535,-6,"A","America/Chicago"
"575","GWO","Greenwood Leflore",33.494328,-90.084706,162,-6,"A","America/Chicago"
"576","GYY","Gary Chicago International Airport",41.6163,-87.4128,591,-6,"A","America/Chicago"
"577","HBG","Hattiesburg Bobby L. Chain Municipal Airport",31.2649444,-89.2528889,151,-6,"A","America/Chicago"
"578","HBR","Hobart Muni",34.991308,-99.051353,1564,-6,"A","America/Chicago"
"579","HCC","Columbia County",42.2913,-73.7103,198,-5,"A","America/New_York"
"580","HCR","Holy Cross Airport",62.1883,-159.775,70,-9,"A","America/Anchorage"
"581","HDH","Dillingham",21.579475,-158.197281,14,-10,"A","Pacific/Honolulu"
"582","HDI","Hardwick Field Airport",35.2199994,-84.832369,874,-5,"A","America/New_York"
"583","HDN","Yampa Valley",40.481181,-107.21766,6602,-7,"A","America/Denver"
"584","HDO","Hondo Municipal Airport",29.3591,-99.1775,930,-6,"A","America/Chicago"
"585","HFD","Hartford Brainard",41.736722,-72.649444,18,-5,"A","America/New_York"
"586","HGR","Hagerstown Regional Richard A Henson Field",39.7079,-77.7295,704,-5,"A","America/New_York"
"587","HHH","Hilton Head",32.216,-80.752,10,-5,"U","America/New_York"
"588","HHI","Wheeler Aaf",21.4835,-158.039667,837,-10,"A","Pacific/Honolulu"
"589","HHR","Jack Northrop Fld Hawthorne Muni",33.922839,-118.335186,66,-8,"A","America/Los_Angeles"
"590","HIB","Chisholm Hibbing",47.3866,-92.838994,1353,-6,"A","America/Chicago"
"591","HIF","Hill Afb",41.123939,-111.973039,4789,-7,"A","America/Denver"
"592","HII","Lake Havasu City Airport",34.5711111,-114.3582778,783,-7,"N","America/Phoenix"
"593","HIO","Portland Hillsboro",45.540394,-122.949825,204,-8,"A","America/Los_Angeles"
"594","HKB","Healy River Airport",63.8675,-148.968889,1263,-9,"A","America/Anchorage"
"595","HKY","Hickory Rgnl",35.741147,-81.38955,1189,-5,"A","America/New_York"
"596","HLG","Wheeling Ohio County Airport",40.175,-80.6463,1195,-5,"A","America/New_York"
"597","HLN","Helena Rgnl",46.606806,-111.98275,3877,-7,"A","America/Denver"
"598","HLR","Hood Aaf",31.138731,-97.714469,924,-6,"A","America/Chicago"
"599","HMN","Holloman Afb",32.852519,-106.106525,4093,-7,"A","America/Denver"
"600","HNH","Hoonah Airport",58.096111,-135.409722,19,-9,"A","America/Anchorage"
"601","HNL","Honolulu Intl",21.318681,-157.922428,13,-10,"N","Pacific/Honolulu"
"602","HNM","Hana",20.795636,-156.014439,78,-10,"A","Pacific/Honolulu"
"603","HNS","Haines Airport",59.2438,-135.524,15,-9,"A","America/Anchorage"
"604","HOB","Lea Co Rgnl",32.687528,-103.217028,3661,-7,"A","America/Denver"
"605","HOM","Homer",59.645556,-151.476583,84,-9,"A","America/Anchorage"
"606","HON","Huron Rgnl",44.3852,-98.228542,1289,-6,"A","America/Chicago"
"607","HOP","Campbell Aaf",36.668567,-87.496183,573,-6,"A","America/Chicago"
"608","HOT","Memorial Field",34.478,-93.0962,540,-6,"A","America/Chicago"
"609","HOU","William P Hobby",29.645419,-95.278889,46,-6,"A","America/Chicago"
"610","HPB","Hooper Bay Airport",61.5239,-166.147,7,-9,"A","America/Anchorage"
"611","HPN","Westchester Co",41.066959,-73.707575,439,-5,"A","America/New_York"
"612","HQM","Bowerman Field",46.9711944,-123.9365556,18,-8,"A","America/Los_Angeles"
"613","HQU","McDuffie County Airport",33.5297315,-82.5169509,501,-5,"A","America/New_York"
"614","HRL","Valley Intl",26.2285,-97.654389,36,-6,"A","America/Chicago"
"615","HRO","Boone Co",36.261519,-93.154728,1365,-6,"A","America/Chicago"
"616","HRT","Hurlburt Fld",30.427803,-86.689278,38,-6,"A","America/Chicago"
"617","HSH","Henderson Executive Airport",35.972778,-115.134444,1881,-8,"A","America/Los_Angeles"
"618","HSL","Huslia Airport",65.697778,-156.351389,213,-9,"A","America/Anchorage"
"619","HST","Homestead Arb",25.48855,-80.383567,6,-5,"A","America/New_York"
"620","HSV","Huntsville International Airport-Carl T Jones Field",34.6371944,-86.7750556,629,-6,"A","America/Chicago"
"621","HTL","Roscommon Co",44.359806,-84.671112,1150,-5,"A","America/New_York"
"622","HTS","Tri State Milton J Ferguson Field",38.3667,-82.558,828,-5,"A","America/New_York"
"623","HUA","Redstone Aaf",34.678653,-86.684781,685,-6,"A","America/Chicago"
"624","HUF","Terre Haute Intl Hulman Fld",39.451464,-87.307561,589,-5,"A","America/New_York"
"625","HUL","Houlton Intl",46.123083,-67.792056,489,-5,"A","America/New_York"
"626","HUS","Hughes Airport",66.039167,-154.264722,299,-9,"A","America/Anchorage"
"627","HUT","Hutchinson Municipal Airport",38.0655,-97.8606,1543,-6,"A","America/Chicago"
"628","HVN","Tweed-New Haven Airport",41.26375,-72.886806,14,-5,"A","America/New_York"
"629","HVR","Havre City Co",48.542983,-109.762342,2590,-7,"A","America/Denver"
"630","HWD","Hayward Executive Airport",37.6588888888889,-122.121666666667,52,-8,"A","America/Los_Angeles"
"631","HWO","North Perry",26.001222,-80.240722,8,-5,"A","America/New_York"
"632","HXD","Hilton Head Airport",32.2243611,-80.6974722,19,-5,"A","America/New_York"
"633","HYA","Barnstable Muni Boardman Polando Fld",41.669336,-70.280356,55,-5,"A","America/New_York"
"634","HYG","Hydaburg Seaplane Base",55.206389,-132.828333,0,-9,"A","America/Anchorage"
"635","HYL","Hollis Seaplane Base",55.481667,-132.646111,0,-9,"A","America/Anchorage"
"636","HYS","Hays Regional Airport",38.8422,-99.2732,1998,-6,"A","America/Chicago"
"637","HZL","Hazleton Municipal",40.989167,-76.0025,1603,-5,"A","America/New_York"
"638","IAB","Mc Connell Afb",37.621853,-97.268192,1371,-6,"A","America/Chicago"
"639","IAD","Washington Dulles Intl",38.944533,-77.455811,313,-5,"A","America/New_York"
"640","IAG","Niagara Falls Intl",43.107333,-78.946194,589,-5,"A","America/New_York"
"641","IAH","George Bush Intercontinental",29.984433,-95.341442,97,-6,"A","America/Chicago"
"642","IAN","Bob Baker Memorial Airport",66.975833,-160.436667,166,-9,"A","America/Anchorage"
"643","ICT","Wichita Mid Continent",37.649944,-97.433056,1333,-6,"A","America/Chicago"
"644","ICY","Icy Bay Airport",59.968889,-141.661667,50,-9,"A","America/Anchorage"
"645","IDA","Idaho Falls Rgnl",43.514556,-112.07075,4744,-7,"A","America/Denver"
"646","IDL","Idlewild Intl",40.639751,-73.778924,13,-5,"A","America/New_York"
"647","IFP","Laughlin-Bullhead Intl",35.1574,-114.56,695,-7,"A","America/Phoenix"
"648","IGG","Igiugig Airport",59.324,-155.902,90,-9,"A","America/Anchorage"
"649","IGM","Kingman Airport",35.2595,-113.938,3449,-7,"A","America/Phoenix"
"650","IGQ","Lansing Municipal",41.5349167,-87.5295278,620,-6,"A","America/Chicago"
"651","IJD","Windham Airport",41.7440278,-72.1802222,246,-5,"A","America/New_York"
"652","IKK","Greater Kankakee",41.071389,-87.846278,630,-6,"A","America/Chicago"
"653","IKO","Nikolski Air Station",52.941667,-168.848889,77,-9,"A","America/Anchorage"
"654","IKR","Kirtland Air Force Base",35.040222,-106.609194,5355,-7,"A","America/Denver"
"655","IKV","Ankeny Regl Airport",41.691389,-93.566389,910,-6,"A","America/Chicago"
"656","ILG","New Castle",39.678722,-75.606528,79,-5,"A","America/New_York"
"657","ILI","Iliamna",59.754356,-154.910961,186,-9,"A","America/Anchorage"
"658","ILM","Wilmington Intl",34.270615,-77.902569,32,-5,"A","America/New_York"
"659","ILN","Wilmington Airborne Airpark",39.42792,-83.792118,1077,-5,"U","America/New_York"
"660","IMM","Immokalee",26.433889,-81.401389,37,-5,"A","America/New_York"
"661","IMT","Ford Airport",45.8183611,-88.1145556,1182,-6,"A","America/Chicago"
"662","IND","Indianapolis Intl",39.717331,-86.294383,797,-5,"A","America/New_York"
"663","INJ","Hillsboro Muni",32.083486,-97.097228,685,-6,"A","America/Chicago"
"664","INK","Winkler Co",31.779628,-103.201361,2822,-6,"A","America/Chicago"
"665","INL","Falls Intl",48.566186,-93.403067,1185,-6,"A","America/Chicago"
"666","INS","Creech Afb",36.587183,-115.673353,3133,-8,"A","America/Los_Angeles"
"667","INT","Smith Reynolds",36.133722,-80.222,969,-5,"A","America/New_York"
"668","INW","Winslow-Lindbergh Regional Airport",35.0219167,-110.7225278,4941,-7,"N","America/Phoenix"
"669","IOW","Iowa City Municipal Airport",41.639244,-91.546503,668,-6,"A","America/Chicago"
"670","IPL","Imperial Co",32.834219,-115.578744,-54,-8,"A","America/Los_Angeles"
"671","IPT","Williamsport Rgnl",41.241836,-76.921094,529,-5,"A","America/New_York"
"672","IRC","Circle City Airport",65.827778,-144.076111,613,-9,"A","America/Anchorage"
"673","IRK","Kirksville Regional Airport",40.0935,-92.5449,966,-6,"A","America/Chicago"
"674","ISM","Kissimmee Gateway Airport",28.289806,-81.437083,82,-5,"A","America/New_York"
"675","ISN","Sloulin Fld Intl",48.177939,-103.642347,1982,-6,"A","America/Chicago"
"676","ISO","Kinston Regional Jetport",35.331389,-77.608889,94,-5,"A","America/New_York"
"677","ISP","Long Island Mac Arthur",40.79525,-73.100222,99,-5,"A","America/New_York"
"678","ISW","Alexander Field South Wood County Airport",44.3606456,-89.8381412,1021,-6,"A","America/Chicago"
"679","ITH","Ithaca Tompkins Rgnl",42.491028,-76.458444,1099,-5,"A","America/New_York"
"680","ITO","Hilo Intl",19.721375,-155.048469,38,-10,"N","Pacific/Honolulu"
"681","IWD","Gogebic Iron County Airport",46.5274747,-90.1313967,1230,-6,"U","America/Chicago"
"682","IWS","West Houston",29.818194,-95.672611,111,-6,"A","America/Chicago"
"683","IYK","Inyokern Airport",35.658889,-117.829444,2455,-8,"A","America/Los_Angeles"
"684","IZG","Eastern Slopes Regional",43.9911389,-70.9478889,455,-5,"A","America/New_York"
"685","JAC","Jackson Hole Airport",43.607333333,-110.73775,6451,-7,"A","America/Denver"
"686","JAN","Jackson Evers Intl",32.311167,-90.075889,346,-6,"A","America/Chicago"
"687","JAX","Jacksonville Intl",30.494056,-81.687861,30,-5,"A","America/New_York"
"688","JBR","Jonesboro Muni",35.831708,-90.646417,262,-6,"A","America/Chicago"
"689","JCI","New Century AirCenter Airport",38.8309167,-94.8903056,1087,-6,"A","America/Chicago"
"690","JEF","Jefferson City Memorial Airport",38.5912,-92.1561,549,-6,"A","America/Chicago"
"691","JES","Jesup-Wayne County Airport",31.553889,-81.8825,107,-5,"A","America/New_York"
"692","JFK","John F Kennedy Intl",40.639751,-73.778925,13,-5,"A","America/New_York"
"693","JGC","Grand Canyon Heliport",35.96666666,-112.13333333,2500,-7,"A","America/Phoenix"
"694","JHM","Kapalua",20.962936,-156.673031,256,-10,"N","Pacific/Honolulu"
"695","JHW","Chautauqua County-Jamestown",42.153333,-79.258056,525,-5,"A","America/New_York"
"696","JKA","Jack Edwards Airport",30.2896389,-87.6717778,17,-6,"A","America/Chicago"
"697","JLN","Joplin Rgnl",37.151814,-94.498269,981,-6,"A","America/Chicago"
"698","JMS","Jamestown Regional Airport",46.9297,-98.6782,1498,-6,"A","America/Chicago"
"699","JNU","Juneau Intl",58.354972,-134.576278,21,-9,"A","America/Anchorage"
"700","JOT","Regional Airport",41.517778,-88.175556,582,-6,"A","America/Chicago"
"701","JRA","West 30th St. Heliport",40.7545,-74.0071,7,-5,"A","America/New_York"
"702","JRB","Wall Street Heliport",40.701214,-74.009028,7,-5,"A","America/New_York"
"703","JST","John Murtha Johnstown-Cambria County Airport",40.316111,-78.833889,2284,-5,"A","America/New_York"
"704","JVL","Southern Wisconsin Regional Airport",42.62025,-89.0415556,808,-6,"A","America/Chicago"
"705","JXN","Reynolds Field",42.260556,-84.460556,1001,-5,"A","America/New_York"
"706","JYL","Plantation Airpark",32.6452778,-81.5971111,188,-5,"A","America/New_York"
"707","JYO","Leesburg Executive Airport",39.078,-77.558,389,-5,"A","America/New_York"
"708","JZP","Pickens County Airport",34.4534722,-84.4572222,1535,-5,"A","America/New_York"
"709","K03","Wainwright As",70.613378,-159.86035,35,-9,"A","America/Anchorage"
"710","K27","Burrello-Mechanicville Airport",42.893133,-73.66845,195,-5,"A","America/New_York"
"711","K83","Sabetha Municipal",39.5425,-95.4677,1330,-6,"A","America/Chicago"
"712","KAE","Kake Seaplane Base",56.973056,-133.945556,0,-9,"A","America/Anchorage"
"713","KAL","Kaltag Airport",64.3191,-158.741,187,-9,"A","America/Anchorage"
"714","KBC","Birch Creek Airport",66.256708,-145.815319,450,-9,"A","America/Anchorage"
"715","KBW","Chignik Bay Seaplane Base",56.295556,-158.401398,0,-9,"A","America/Anchorage"
"716","KCC","Coffman Cove Seaplane Base",56.014722,-132.833889,0,-9,"A","America/Anchorage"
"717","KCL","Chignik Lagoon Airport",56.311111,-158.534167,25,-9,"A","America/Anchorage"
"718","KCQ","Chignik Lake Airport",56.255,-158.775278,50,-9,"A","America/Anchorage"
"719","KEH","Kenmore Air Harbor Inc Seaplane Base",47.7548,-122.259,14,-8,"A","America/Los_Angeles"
"720","KEK","Ekwok Airport",59.356944,-157.471111,135,-9,"A","America/Anchorage"
"721","KFP","False Pass Airport",54.8475,-163.410278,20,-9,"A","America/Anchorage"
"722","KGK","Koliganek Airport",59.726667,-157.259444,269,-9,"A","America/Anchorage"
"723","KGX","Grayling Airport",62.894444,-160.065,99,-9,"A","America/Anchorage"
"724","KKA","Koyuk Alfred Adams Airport",64.939444,-161.154167,154,-9,"A","America/Anchorage"
"725","KKB","Kitoi Bay Seaplane Base",58.190833,-152.370556,0,-9,"A","America/Anchorage"
"726","KKH","Kongiganak Airport",59.960833,-162.881111,30,-9,"A","America/Anchorage"
"727","KLG","Kalskag Airport",61.5363,-160.341,55,-9,"A","America/Anchorage"
"728","KLL","Levelock Airport",59.128056,-156.858611,39,-9,"A","America/Anchorage"
"729","KLN","Larsen Bay Airport",57.535,-153.976667,87,-9,"A","America/Anchorage"
"730","KLS","Kelso Longview",46.118,-122.898389,20,-8,"A","America/Los_Angeles"
"731","KLW","Klawock Airport",55.579167,-133.076111,80,-9,"A","America/Anchorage"
"732","KMO","Manokotak Airport",58.990278,-159.05,51,-9,"A","America/Anchorage"
"733","KMY","Moser Bay Seaplane Base",57.025556,-154.145833,0,-9,"A","America/Anchorage"
"734","KNW","New Stuyahok Airport",59.4499,-157.328,302,-9,"A","America/Anchorage"
"735","KOA","Kona Intl At Keahole",19.738767,-156.045631,47,-10,"N","Pacific/Honolulu"
"736","KOT","Kotlik Airport",63.030556,-163.532778,15,-9,"A","America/Anchorage"
"737","KOY","Olga Bay Seaplane Base",57.161389,-154.229722,0,-9,"A","America/Anchorage"
"738","KOZ","Ouzinkie Airport",57.922876,-152.500511,55,-9,"A","America/Anchorage"
"739","KPB","Point Baker Seaplane Base",56.351944,-133.6225,0,-9,"A","America/Anchorage"
"740","KPC","Port Clarence Coast Guard Station",65.2537,-166.859,10,-9,"A","America/Anchorage"
"741","KPN","Kipnuk Airport",59.933056,-164.030556,11,-9,"A","America/Anchorage"
"742","KPR","Port Williams Seaplane Base",58.49,-152.582222,0,-9,"A","America/Anchorage"
"743","KPV","Perryville Airport",55.906667,-159.160833,29,-9,"A","America/Anchorage"
"744","KPY","Port Bailey Seaplane Base",57.93,-153.040556,0,-9,"A","America/Anchorage"
"745","KQA","Akutan Seaplane Base",54.1325,-165.785,0,-9,"A","America/Anchorage"
"746","KSM","St Marys Airport",62.0605,-163.302,311,-9,"A","America/Anchorage"
"747","KTB","Thorne Bay Seaplane Base",55.688056,-132.536667,0,-9,"A","America/Anchorage"
"748","KTN","Ketchikan Intl",55.355556,-131.71375,88,-9,"A","America/Anchorage"
"749","KTS","Brevig Mission Airport",65.331389,-166.465833,35,-9,"A","America/Anchorage"
"750","KUK","Kasigluk Airport",60.873333,-162.524444,40,-9,"A","America/Anchorage"
"751","KVC","King Cove Airport",55.1163,-162.266,155,-9,"A","America/Anchorage"
"752","KVL","Kivalina Airport",67.7362,-164.563,13,-9,"A","America/Anchorage"
"753","KWK","Kwigillingok Airport",59.876389,-163.168611,18,-9,"A","America/Anchorage"
"754","KWN","Quinhagak Airport",59.755,-161.845278,42,-9,"A","America/Anchorage"
"755","KWP","West Point Village Seaplane Base",57.77,-153.548889,0,-9,"A","America/Anchorage"
"756","KWT","Kwethluk Airport",60.790278,-161.443611,30,-9,"A","America/Anchorage"
"757","KYK","Karuluk Airport",57.566944,-154.450278,137,-9,"A","America/Anchorage"
"758","KYU","Koyukuk Airport",64.875833,-157.730556,149,-9,"A","America/Anchorage"
"759","KZB","Zachar Bay Seaplane Base",57.55,-153.75,0,-9,"A","America/Anchorage"
"760","L06","Furnace Creek",36.273,-116.515,0,-8,"A","America/Los_Angeles"
"761","L35","Big Bear City",34.2637778,-116.8560278,6725,-8,"A","America/Los_Angeles"
"762","L52","Oceano County Airport",35.10147222,-120.62236111,14,-8,"U","America/Los_Angeles"
"763","LAA","Lamar Muni",38.069694,-102.6885,3706,-7,"A","America/Denver"
"764","LAF","Purude University Airport",40.4123056,-86.9368889,606,-5,"A","America/New_York"
"765","LAL","Lakeland Linder Regional Airport",27.9889167,-82.0185556,142,-5,"A","America/New_York"
"766","LAM","Los Alamos Airport",35.8798019,-106.2694153,7171,-7,"A","America/Denver"
"767","LAN","Capital City",42.7787,-84.587357,861,-5,"A","America/New_York"
"768","LAR","Laramie Regional Airport",41.3121,-105.675,7284,-7,"A","America/Denver"
"769","LAS","Mc Carran Intl",36.080056,-115.15225,2141,-8,"A","America/Los_Angeles"
"770","LAW","Lawton-Fort Sill Regional Airport",34.5677144,-98.4166367,1110,-6,"A","America/Chicago"
"771","LAX","Los Angeles Intl",33.942536,-118.408075,126,-8,"A","America/Los_Angeles"
"772","LBB","Lubbock Preston Smith Intl",33.663639,-101.822778,3282,-6,"A","America/Chicago"
"773","LBE","Arnold Palmer Regional Airport",40.2759,-79.4048,1185,-5,"A","America/New_York"
"774","LBF","North Platte Regional Airport Lee Bird Field",41.1262,-100.684,2776,-6,"A","America/Chicago"
"775","LBL","Liberal Muni",37.044222,-100.95986,2885,-6,"A","America/Chicago"
"776","LBT","Municipal Airport",34.6098056,-79.0595556,125,-5,"A","America/New_York"
"777","LCH","Lake Charles Rgnl",30.126112,-93.223335,15,-6,"A","America/Chicago"
"778","LCK","Rickenbacker Intl",39.813786,-82.927822,744,-5,"A","America/New_York"
"779","LCQ","Lake City Municipal Airport",30.181944,-82.576944,201,-5,"A","America/New_York"
"780","LDJ","Linden Airport",40.6174472,-74.2445942,23,-5,"A","America/New_York"
"781","LEB","Lebanon Municipal Airport",43.6261,-72.3042,603,-5,"A","America/New_York"
"782","LEW","Lewiston Maine",44.0484728,-70.2835075,288,-5,"A","America/New_York"
"783","LEX","Blue Grass",38.0365,-84.605889,979,-5,"A","America/New_York"
"784","LFI","Langley Afb",37.082881,-76.360547,11,-5,"A","America/New_York"
"785","LFK","Angelina Co",31.234014,-94.75,296,-6,"A","America/Chicago"
"786","LFT","Lafayette Rgnl",30.205278,-91.987611,43,-6,"A","America/Chicago"
"787","LGA","La Guardia",40.777245,-73.872608,22,-5,"A","America/New_York"
"788","LGB","Long Beach",33.817722,-118.151611,60,-8,"A","America/Los_Angeles"
"789","LGC","LaGrange-Callaway Airport",33.0088611,-85.0726111,694,-5,"A","America/New_York"
"790","LGU","Logan-Cache",41.791,-111.852,4457,-7,"A","America/Denver"
"791","LHD","Lake Hood Seaplane Base",61.1866382,-149.9653918,71,-9,"A","America/Anchorage"
"792","LHM","Lincoln Regional Airport Karl Harder Field",38.9091667,-121.3513333,121,-8,"A","America/Los_Angeles"
"793","LHV","William T. Piper Mem.",41.1357778,-77.4223056,556,-5,"A","America/New_York"
"794","LHX","La Junta Muni",38.049719,-103.509431,4238,-7,"A","America/Denver"
"795","LIH","Lihue",21.975983,-159.338958,153,-10,"N","Pacific/Honolulu"
"796","LIT","Adams Fld",34.729444,-92.224306,262,-6,"A","America/Chicago"
"797","LIV","Livingood Airport",65.531111,-148.541111,696,-9,"A","America/Anchorage"
"798","LKE","Kenmore Air Harbor Seaplane Base",47.629,-122.339,14,-8,"A","America/Los_Angeles"
"799","LKK","Kulik Lake Airport",58.96591,-155.108089,1000,-9,"U","America/Anchorage"
"800","LKP","Lake Placid Airport",44.264444,-73.961944,1747,-5,"A","America/New_York"
"801","LMT","Klamath Falls Airport",42.1561,-121.733,4095,-8,"A","America/Los_Angeles"
"802","LNA","Palm Beach Co Park",26.593,-80.085056,14,-5,"A","America/New_York"
"803","LNK","Lincoln",40.850971,-96.75925,1219,-6,"A","America/Chicago"
"804","LNN","Lost Nation Municipal Airport",41.6840278,-81.38975,626,-5,"A","America/New_York"
"805","LNR","Tri-County Regional Airport",43.211667,-90.181667,718,-6,"A","America/Chicago"
"806","LNS","Lancaster Airport",40.1217,-76.2961,403,-5,"A","America/New_York"
"807","LNY","Lanai",20.785611,-156.951419,1308,-10,"N","Pacific/Honolulu"
"808","LOT","Lewis University Airport",41.606326,-88.083003,680,-6,"A","America/Chicago"
"809","LOU","Bowman Fld",38.228,-85.663722,546,-5,"A","America/New_York"
"810","LOZ","London-Corbin Airport-MaGee Field",37.0868889,-84.0773889,1212,-5,"A","America/New_York"
"811","LPC","Lompoc Airport",34.6656,-120.4675,88,-8,"A","America/Los_Angeles"
"812","LPR","Lorain County Regional Airport",41.3442778,-82.1776389,793,-5,"A","America/New_York"
"813","LPS","Lopez Island Airport",48.4839,-122.938,209,-8,"A","America/Los_Angeles"
"814","LRD","Laredo Intl",27.54375,-99.461556,508,-6,"A","America/Chicago"
"815","LRF","Little Rock Afb",34.916944,-92.149722,311,-6,"A","America/Chicago"
"816","LRO","Mount Pleasant Regional-Faison Field",32.5387,-79.4697,12,-5,"A",NA
"817","LRU","Las Cruces Intl",32.289417,-106.921972,4456,-7,"A","America/Denver"
"818","LSE","La Crosse Municipal",43.878986,-91.256711,654,-6,"A","America/Chicago"
"819","LSF","Lawson Aaf",32.337322,-84.991283,232,-5,"A","America/New_York"
"820","LSV","Nellis Afb",36.236197,-115.034253,1870,-8,"A","America/Los_Angeles"
"821","LTS","Altus Afb",34.667067,-99.266681,1382,-6,"A","America/Chicago"
"822","LUF","Luke Afb",33.535,-112.38306,1085,-7,"A","America/Phoenix"
"823","LUK","Cincinnati Muni Lunken Fld",39.103333,-84.418611,483,-5,"A","America/New_York"
"824","LUP","Kalaupapa Airport",21.211,-156.974,24,-10,"A","Pacific/Honolulu"
"825","LUR","Cape Lisburne Lrrs",68.875133,-166.110022,12,-9,"A","America/Anchorage"
"826","LVK","Livermore Municipal",37.41362,-121.49133,400,-8,"A","America/Los_Angeles"
"827","LVM","Mission Field Airport",45.6993889,-110.4483056,4660,-7,"A","America/Denver"
"828","LVS","Las Vegas Muni",35.654222,-105.142389,6877,-7,"A","America/Denver"
"829","LWA","South Haven Area Regional Airport",42.3511944,-86.2556389,666,-5,"A","America/New_York"
"830","LWB","Greenbrier Valley Airport",37.858333,-80.399444,2302,-5,"U","America/New_York"
"831","LWC","Lawrence Municipal",39.009167,-95.2175,833,-6,"A","America/Chicago"
"832","LWM","Lawrence Municipal Airport",42.7171944,-71.1234167,148,-5,"A","America/New_York"
"833","LWS","Lewiston Nez Perce Co",46.3745,-117.015389,1442,-8,"A","America/Los_Angeles"
"834","LWT","Lewistown Municipal Airport",47.0493,-109.467,4170,-7,"A","America/Denver"
"835","LXY","Mexia - Limestone County Airport",31.6411783,-96.5144594,544,-6,"A","America/Chicago"
"836","LYH","Lynchburg Regional Preston Glenn Field",37.3267,-79.2004,938,-5,"A","America/New_York"
"837","LYU","Ely Municipal",47.824444,-91.830833,1456,-6,"A","America/Chicago"
"838","LZU","Gwinnett County Airport-Briscoe Field",33.9780761,-83.9623772,1061,-5,"A","America/New_York"
"839","M94","Desert Aire",46.4124,-119.5518,586,-8,"A","America/Los_Angeles"
"840","MAE","Madera Municipal Airport",36.9886111,-120.1124444,255,-8,"A","America/Los_Angeles"
"841","MAF","Midland Intl",31.942528,-102.201914,2871,-6,"A","America/Chicago"
"842","MBL","Manistee County-Blacker Airport",44.2725,-86.246944,621,-5,"A","America/New_York"
"843","MBS","Mbs Intl",43.532913,-84.079647,668,-5,"A","America/New_York"
"844","MCC","Mc Clellan Afld",38.667639,-121.400611,75,-8,"A","America/Los_Angeles"
"845","MCD","Mackinac Island Airport",45.8649344,-84.637344,740,-5,"U","America/New_York"
"846","MCE","Merced Municipal Airport",37.284722,-120.513889,156,-8,"A","America/Los_Angeles"
"847","MCF","Macdill Afb",27.849339,-82.521214,14,-5,"A","America/New_York"
"848","MCG","McGrath Airport",62.9529,-155.606,338,-9,"A","America/Anchorage"
"849","MCI","Kansas City Intl",39.297606,-94.713905,1026,-6,"A","America/Chicago"
"850","MCK","McCook Regional Airport",40.206389,-100.592222,2583,-6,"A","America/Chicago"
"851","MCL","McKinley National Park Airport",63.732757,-148.91129,1720,-9,"A","America/Anchorage"
"852","MCN","Middle Georgia Rgnl",32.69285,-83.649211,354,-5,"A","America/New_York"
"853","MCO","Orlando Intl",28.429394,-81.308994,96,-5,"A","America/New_York"
"854","MCW","Mason City Municipal",43.2247,-93.4067,1243,-6,"A","America/Chicago"
"855","MDT","Harrisburg Intl",40.193494,-76.763403,310,-5,"A","America/New_York"
"856","MDW","Chicago Midway Intl",41.785972,-87.752417,620,-6,"A","America/Chicago"
"857","ME5","Banks Airport",44.1653889,-68.4281667,100,-5,"A","America/New_York"
"858","MEI","Key Field",32.332624,-88.751868,297,-6,"A","America/Chicago"
"859","MEM","Memphis Intl",35.042417,-89.976667,341,-6,"A","America/Chicago"
"860","MER","Castle",37.380481,-120.568189,189,-8,"A","America/Los_Angeles"
"861","MFD","Mansfield Lahm Regional",40.8214167,-82.5166389,1297,-5,"A","America/New_York"
"862","MFE","Mc Allen Miller Intl",26.175833,-98.238611,107,-6,"A","America/Chicago"
"863","MFI","Marshfield Municipal Airport",44.6368797,-90.1893267,1278,-6,"A","America/Chicago"
"864","MFR","Rogue Valley Intl Medford",42.374228,-122.8735,1335,-8,"A","America/Los_Angeles"
"865","MGC","Michigan City Municipal Airport",41.7033,-86.8211,500,-6,"A","America/Chicago"
"866","MGE","Dobbins Arb",33.915382,-84.516319,1068,-5,"A","America/New_York"
"867","MGJ","Orange County Airport",41.5099884,-74.2646444,364,-5,"A","America/New_York"
"868","MGM","Montgomery Regional Airport",32.3006389,-86.3939722,221,-6,"A","America/Chicago"
"869","MGR","Moultrie Municipal Airport",31.0849167,-83.80325,294,-5,"A","America/New_York"
"870","MGW","Morgantown Muni Walter L Bill Hart Fld",39.642908,-79.916314,1248,-5,"A","America/New_York"
"871","MGY","Dayton-Wright Brothers Airport",39.5889722,-84.2248611,957,-5,"U","America/New_York"
"872","MHK","Manhattan Reigonal",39.140972,-96.670833,1057,-6,"A","America/Chicago"
"873","MHM","Minchumina Airport",63.886111,-152.301944,678,-9,"A","America/Anchorage"
"874","MHR","Sacramento Mather",38.553897,-121.297592,96,-8,"A","America/Los_Angeles"
"875","MHT","Manchester Regional Airport",42.932556,-71.435667,266,-5,"A","America/New_York"
"876","MHV","Mojave",35.059364,-118.151856,2791,-8,"A","America/Los_Angeles"
"877","MIA","Miami Intl",25.79325,-80.290556,8,-5,"A","America/New_York"
"878","MIB","Minot Afb",48.415572,-101.357661,1668,-6,"A","America/Chicago"
"879","MIC","Crystal Airport",45.0343,-93.2114,869,-6,"A","America/Chicago"
"880","MIE","Delaware County Airport",40.2424722,-85.39575,937,-5,"U","America/New_York"
"881","MIV","Millville Muni",39.367806,-75.072222,85,-5,"A","America/New_York"
"882","MKC","Downtown",39.1275,-94.598889,759,-6,"A","America/Chicago"
"883","MKE","General Mitchell Intl",42.947222,-87.896583,723,-6,"A","America/Chicago"
"884","MKG","Muskegon County Airport",43.1695,-86.2382,628,-5,"A","America/New_York"
"885","MKK","Molokai",21.152886,-157.096256,454,-10,"N","Pacific/Honolulu"
"886","MKL","Mc Kellar Sipes Rgnl",35.599889,-88.915611,434,-6,"A","America/Chicago"
"887","MKO","Davis Fld",35.656489,-95.366656,612,-6,"A","America/Chicago"
"888","MLB","Melbourne Intl",28.102753,-80.645258,33,-5,"A","America/New_York"
"889","MLC","Mc Alester Rgnl",34.882403,-95.783463,770,-6,"A","America/Chicago"
"890","MLD","Malad City",42.17,-112.289,4503,-7,"A","America/Denver"
"891","MLI","Quad City Intl",41.448528,-90.507539,590,-6,"A","America/Chicago"
"892","MLJ","Baldwin County Airport",33.154225,-83.2414139,385,-5,"A","America/New_York"
"893","MLL","Marshall Don Hunter Sr. Airport",61.8646418,-162.026111,103,-9,"A","America/Anchorage"
"894","MLS","Frank Wiley Field",46.428,-105.886,2630,-7,"A","America/Denver"
"895","MLT","Millinocket Muni",45.647836,-68.685561,408,-5,"A","America/New_York"
"896","MLU","Monroe Rgnl",32.510864,-92.037689,79,-6,"A","America/Chicago"
"897","MLY","Manley Hot Springs Airport",64.9975,-150.644167,270,-9,"A","America/Anchorage"
"898","MMH","Mammoth Yosemite Airport",37.624049,-118.837772,7128,-8,"A","America/Los_Angeles"
"899","MMI","McMinn Co",35.39919,-84.56177,874,-5,"N","America/New_York"
"900","MMU","Morristown Municipal Airport",40.79935,-74.4148747,187,-5,"A","America/New_York"
"901","MMV","Mc Minnville Muni",45.194444,-123.135944,163,-8,"A","America/Los_Angeles"
"902","MNM","Menominee Marinette Twin Co",45.12665,-87.638443,625,-6,"A","America/Chicago"
"903","MNT","Minto Airport",65.143611,-149.37,460,-9,"A","America/Anchorage"
"904","MNZ","Manassas",38.721389,-77.515556,192,-5,"A","America/New_York"
"905","MOB","Mobile Rgnl",30.691231,-88.242814,219,-6,"A","America/Chicago"
"906","MOD","Modesto City Co Harry Sham",37.625817,-120.954422,97,-8,"A","America/Los_Angeles"
"907","MOT","Minot Intl",48.259378,-101.280333,1716,-6,"A","America/Chicago"
"908","MOU","Mountain Village Airport",62.0954,-163.682,337,-9,"A","America/Anchorage"
"909","MPB","Miami Seaplane Base",25.7783,-80.1703,0,-5,"A","America/New_York"
"910","MPI","MariposaYosemite",37.3039,-120.0222,2454,-8,"A","America/Los_Angeles"
"911","MPV","Edward F Knapp State",44.203503,-72.562328,1165,-5,"A","America/New_York"
"912","MQB","Macomb Municipal Airport",40.5200833,-90.6523889,707,-6,"U","America/Chicago"
"913","MQI","Dare County Regional",35.5514,-75.4173,13,-5,"A","America/New_York"
"914","MQT","Sawyer International Airport",46.353611,-87.395278,1221,-5,"A","America/New_York"
"915","MRB","Eastern WV Regional Airport",39.2407,-77.591,554,-5,"A","America/New_York"
"916","MRI","Merrill Fld",61.213544,-149.844447,137,-9,"A","America/Anchorage"
"917","MRK","Marco Islands",25.9950278,-81.6725278,5,-5,"A","America/New_York"
"918","MRN","Foothills Regional Airport",35.8202336,-81.6115119,1270,-5,"A","America/New_York"
"919","MRY","Monterey Peninsula",36.587,-121.842944,257,-8,"A","America/Los_Angeles"
"920","MSL","Northwest Alabama Regional Airport",34.7453,-87.6102,550,-6,"A","America/Chicago"
"921","MSN","Dane Co Rgnl Truax Fld",43.139858,-89.337514,887,-6,"A","America/Chicago"
"922","MSO","Missoula Intl",46.916306,-114.090556,3205,-7,"A","America/Denver"
"923","MSP","Minneapolis St Paul Intl",44.881956,-93.221767,841,-6,"A","America/Chicago"
"924","MSS","Massena Intl Richards Fld",44.935833,-74.845547,215,-5,"A","America/New_York"
"925","MSY","Louis Armstrong New Orleans Intl",29.993389,-90.258028,4,-6,"A","America/Chicago"
"926","MTC","Selfridge Angb",42.608333,-82.8355,580,-5,"A","America/New_York"
"927","MTH","Florida Keys Marathon Airport",24.726111,-81.051389,7,-5,"A","America/New_York"
"928","MTJ","Montrose Regional Airport",38.509794,-107.894242,5759,-7,"A","America/Denver"
"929","MTM","Metlakatla Seaplane Base",55.131111,-131.578056,0,-9,"A","America/Anchorage"
"930","MTN","Martin State",39.3256667,-76.4137778,22,-5,"A","America/New_York"
"931","MUE","Waimea Kohala",20.001328,-155.668108,2671,-10,"A","Pacific/Honolulu"
"932","MUI","Muir Aaf",40.434811,-76.569411,489,-5,"A","America/New_York"
"933","MUO","Mountain Home Afb",43.043603,-115.872431,2996,-7,"A","America/Denver"
"934","MVL","Morrisville Stowe State Airport",44.535,-72.614,732,-5,"A","America/New_York"
"935","MVY","Martha\\'s Vineyard",41.391667,-70.615278,67,-5,"A","America/New_York"
"936","MWA","Williamson Country Regional Airport",37.7549569,-89.0110936,472,-6,"A","America/Chicago"
"937","MWC","Lawrence J Timmerman Airport",43.1103889,-88.0344167,745,-6,"A","America/Chicago"
"938","MWH","Grant Co Intl",47.207708,-119.32019,1185,-8,"A","America/Los_Angeles"
"939","MWL","Mineral Wells",32.781606,-98.060175,974,-6,"A","America/Chicago"
"940","MWM","Windom Municipal Airport",43.9134017,-95.1094083,1410,-6,"A","America/Chicago"
"941","MXF","Maxwell Afb",32.382944,-86.365778,171,-6,"A","America/Chicago"
"942","MXY","McCarthy Airport",61.4370608,-142.90307372,1531,-9,"U","America/Anchorage"
"943","MYF","Montgomery Field",32.4759,117.759,17,8,"A","Asia/Chongqing"
"944","MYL","McCall Municipal Airport",44.889722,-116.101389,5021,-7,"A","America/Denver"
"945","MYR","Myrtle Beach Intl",33.67975,-78.928333,25,-5,"A","America/New_York"
"946","MYU","Mekoryuk Airport",60.3714,-166.271,48,-9,"A","America/Anchorage"
"947","MYV","Yuba County Airport",39.0553,-121.3411,62,-8,"A","America/Los_Angeles"
"948","MZJ","Pinal Airpark",32.509722,-111.325278,1893,-7,"N","America/Phoenix"
"949","N53","Stroudsburg-Pocono Airport",41.0358717,-75.1606789,480,-5,"A","America/New_York"
"950","N69","Stormville Airport",41.5769708,-73.7323514,358,-5,"A","America/New_York"
"951","N87","Trenton-Robbinsville Airport",40.2139444,-74.6017778,118,-5,"A","America/New_York"
"952","NBG","New Orleans Nas Jrb",29.825333,-90.035,3,-6,"A","America/Chicago"
"953","NBU","Naval Air Station",42.090556,-87.8225,653,-6,"A","America/Chicago"
"954","NCN","Chenega Bay Airport",60.077222,-147.991944,72,-9,"A","America/Anchorage"
"955","NEL","Lakehurst Naes",40.033333,-74.353333,103,-5,"A","America/New_York"
"956","NEW","Lakefront",30.0424167,-90.02825,7,-6,"A","America/Chicago"
"957","NFL","Fallon Nas",39.416584,-118.70098,3934,-8,"A","America/Los_Angeles"
"958","NGF","Kaneohe Bay Mcaf",21.450453,-157.768,24,-10,"A","Pacific/Honolulu"
"959","NGP","Corpus Christi NAS",27.692701,-97.290376,18,-6,"A","America/Chicago"
"960","NGU","Norfolk Ns",36.937644,-76.289289,15,-5,"A","America/New_York"
"961","NGZ","NAS Alameda",37.7861,-122.3186,10,-8,"U","America/Los_Angeles"
"962","NHK","Patuxent River Nas",38.285981,-76.411781,39,-5,"A","America/New_York"
"963","NIB","Nikolai Airport",63.010833,-154.383889,427,-9,"A","America/Anchorage"
"964","NID","China Lake Naws",35.685422,-117.692039,2283,-8,"A","America/Los_Angeles"
"965","NIP","Jacksonville Nas",30.235834,-81.680556,22,-5,"A","America/New_York"
"966","NJK","El Centro Naf",32.829222,-115.671667,-42,-8,"A","America/Los_Angeles"
"967","NKT","Cherry Point Mcas",34.900872,-76.880733,29,-5,"A","America/New_York"
"968","NKX","Miramar Mcas",32.867694,-117.14175,478,-8,"A","America/Los_Angeles"
"969","NLC","Lemoore Nas",36.333012,-119.95208,234,-8,"A","America/Los_Angeles"
"970","NLG","Nelson Lagoon",56.0075,-161.160278,14,-9,"A","America/Anchorage"
"971","NME","Nightmute Airport",60.471111,-164.700833,4,-9,"A","America/Anchorage"
"972","NMM","Meridian Nas",32.552083,-88.555557,317,-6,"A","America/Chicago"
"973","NNL","Nondalton Airport",59.966944,-154.851667,262,-9,"A","America/Anchorage"
"974","NOW","Port Angeles Cgas",48.141481,-123.414075,13,-8,"A","America/Los_Angeles"
"975","NPA","Pensacola Nas",30.352656,-87.318647,28,-6,"A","America/Chicago"
"976","NPZ","Porter County Municipal Airport",41.4539722,-87.0070833,770,-6,"A","America/Chicago"
"977","NQA","Millington Rgnl Jetport",35.356667,-89.870278,320,-6,"A","America/Chicago"
"978","NQI","Kingsville Nas",27.507223,-97.809723,50,-6,"A","America/Chicago"
"979","NQX","Key West Nas",24.575834,-81.688889,6,-5,"A","America/New_York"
"980","NSE","Whiting Fld Nas North",30.724167,-87.021944,199,-6,"A","America/Chicago"
"981","NTD","Point Mugu Nas",34.120285,-119.12094,13,-8,"A","America/Los_Angeles"
"982","NTU","Oceana Nas",36.820703,-76.033542,22,-5,"A","America/New_York"
"983","NUI","Nuiqsut Airport",70.21,-151.005556,38,-9,"A","America/Anchorage"
"984","NUL","Nulato Airport",64.729444,-158.074167,399,-9,"A","America/Anchorage"
"985","NUP","Nunapitchuk Airport",60.905833,-162.439167,12,-9,"A","America/Anchorage"
"986","NUQ","Moffett Federal Afld",37.416142,-122.049139,32,-8,"A","America/Los_Angeles"
"987","NUW","Whidbey Island Nas",48.351803,-122.655906,47,-8,"A","America/Los_Angeles"
"988","NXP","Twentynine Palms Eaf",34.296161,-116.162203,2051,-8,"A","America/Los_Angeles"
"989","NXX","Willow Grove Nas Jrb",40.199833,-75.148167,358,-5,"A","America/New_York"
"990","NY9","Long Lake",43.9750617,-74.42044,1629,-5,"A","America/New_York"
"991","NYC","All Airports",40.714167,-74.005833,31,-5,"A","America/New_York"
"992","NYG","Quantico Mcaf",38.501683,-77.305333,11,-5,"A","America/New_York"
"993","NZC","Cecil Field",30.2187,-81.8767,81,-5,"A","America/New_York"
"994","NZJ","El Toro",33.676132,-117.731164,383,-8,"A","America/Los_Angeles"
"995","NZY","North Island Nas",32.699219,-117.21531,26,-8,"A","America/Los_Angeles"
"996","O03","Morgantown Airport",40.1570414,-75.8704892,600,-5,"A","America/New_York"
"997","O27","Oakdale Airport",37.7563333,-120.8001944,237,-8,"A","America/Los_Angeles"
"998","OAJ","Albert J Ellis",34.829164,-77.612139,94,-5,"A","America/New_York"
"999","OAK","Metropolitan Oakland Intl",37.721278,-122.220722,9,-8,"A","America/Los_Angeles"
"1000","OAR","Marina Muni",36.681878,-121.762347,134,-8,"A","America/Los_Angeles"
"1001","OBE","County",27.265833,-80.851111,34,-5,"A","America/New_York"
"1002","OBU","Kobuk Airport",66.912222,-156.897222,137,-9,"A","America/Anchorage"
"1003","OCA","Key Largo",25.325393,-80.274775,8,-5,"A","America/New_York"
"1004","OCF","International Airport",29.1725,-82.224167,89,-5,"A","America/New_York"
"1005","OEB","Branch County Memorial Airport",41.9335691,-85.0522935,959,-5,"A","America/New_York"
"1006","OFF","Offutt Afb",41.118332,-95.912511,1052,-6,"A","America/Chicago"
"1007","OGG","Kahului",20.89865,-156.430458,54,-10,"N","Pacific/Honolulu"
"1008","OGS","Ogdensburg Intl",44.681854,-75.4655,297,-5,"A","America/New_York"
"1009","OJC","Johnson County Airport",38.5051,-94.4415,1096,-6,"A","America/Chicago"
"1010","OKC","Will Rogers World",35.393089,-97.600733,1295,-6,"A","America/Chicago"
"1011","OLF","LM Clayton Airport",48.094444,-105.575,1986,-7,"A","America/Denver"
"1012","OLH","Old Harbor Airport",57.218056,-153.269722,55,-9,"A","America/Anchorage"
"1013","OLM","Olympia Regional Airpor",46.9694044,-122.9025447,209,-8,"A","America/Los_Angeles"
"1014","OLS","Nogales Intl",31.417722,-110.84789,3955,-7,"A","America/Phoenix"
"1015","OLT","San Diego Old Town Transit Center",32.7552,-117.1995,0,-8,"A","America/Los_Angeles"
"1016","OLV","Olive Branch Muni",34.876944,-89.783333,350,-6,"A","America/Chicago"
"1017","OMA","Eppley Afld",41.303167,-95.894069,984,-6,"A","America/Chicago"
"1018","OME","Nome",64.512203,-165.445247,37,-9,"A","America/Anchorage"
"1019","OMN","Ormond Beach municipal Airport",29.1804,-81.06497,28,-5,"A","America/New_York"
"1020","ONH","Oneonta Municipal Airport",42.524722,-75.064444,1763,-5,"A","America/New_York"
"1021","ONP","Newport Municipal Airport",44.580361,-124.057917,160,-8,"A","America/Los_Angeles"
"1022","ONT","Ontario Intl",34.056,-117.601194,944,-8,"A","America/Los_Angeles"
"1023","OOK","Toksook Bay Airport",60.541389,-165.087222,59,-9,"A","America/Anchorage"
"1024","OPF","Opa Locka",25.907,-80.278389,8,-5,"A","America/New_York"
"1025","OQN","Brandywine Airport",39.5924,-75.3455,466,-5,"A","America/New_York"
"1026","OQU","Quonset State Airport",41.5971389,-71.4121389,18,-5,"A","America/New_York"
"1027","ORD","Chicago Ohare Intl",41.978603,-87.904842,668,-6,"A","America/Chicago"
"1028","ORF","Norfolk Intl",36.894611,-76.201222,26,-5,"A","America/New_York"
"1029","ORH","Worcester Regional Airport",42.2673,-71.8757,1009,-5,"A","America/New_York"
"1030","ORI","Port Lions Airport",57.885278,-152.846111,52,-9,"A","America/Anchorage"
"1031","ORL","Executive",28.545464,-81.332936,113,-5,"A","America/New_York"
"1032","ORT","Northway",62.961334,-141.929136,1716,-9,"A","America/Anchorage"
"1033","ORV","Robert Curtis Memorial Airport",66.8175,-161.022222,55,-9,"A","America/Anchorage"
"1034","OSC","Oscoda Wurtsmith",44.451558,-83.394053,634,-5,"A","America/New_York"
"1035","OSH","Wittman Regional Airport",44.024983,-88.551336,790,-6,"A","America/Chicago"
"1036","OSU","Ohio State University Airport",40.0798,-83.073,905,-5,"U","America/New_York"
"1037","OTH","Southwest Oregon Regional Airport",43.4171,-124.246,17,-8,"A","America/Los_Angeles"
"1038","OTS","Anacortes Airport",48.498889,-122.6625,241,-8,"A","America/Los_Angeles"
"1039","OTZ","Ralph Wien Mem",66.884678,-162.59855,11,-9,"A","America/Anchorage"
"1040","OWB","Owensboro Daviess County Airport",37.7401,-87.1668,406,-6,"A","America/Chicago"
"1041","OWD","Norwood Memorial Airport",42.1905278,-71.1729444,49,-5,"A","America/New_York"
"1042","OXC","Waterbury-Oxford Airport",41.4785556,-73.13525,726,-5,"A","America/New_York"
"1043","OXD","Miami University Airport",39.5022607,-84.7843814,1040,-5,"U","America/New_York"
"1044","OXR","Oxnard - Ventura County",34.200833,-119.207222,15,-8,"A","America/Los_Angeles"
"1045","OZA","Ozona Muni",30.735281,-101.202972,2381,-6,"A","America/Chicago"
"1046","P08","Coolidge Municipal Airport",32.9359016418457,-111.427001953125,1574,-7,"A","America/Phoenix"
"1047","P52","Cottonwood Airport",34.7299995422363,-112.035003662109,3550,-7,"A","America/Phoenix"
"1048","PAE","Snohomish Co",47.906342,-122.281564,606,-8,"A","America/Los_Angeles"
"1049","PAH","Barkley Regional Airport",37.0602875,-88.7729583,410,-6,"A","America/Chicago"
"1050","PAM","Tyndall Afb",30.069567,-85.575417,17,-6,"A","America/Chicago"
"1051","PAO","Palo Alto Airport of Santa Clara County",37.4611111,-122.1150556,7,-8,"A","America/Los_Angeles"
"1052","PAQ","Palmer Muni",61.594914,-149.088711,242,-9,"A","America/Anchorage"
"1053","PBF","Grider Fld",34.173142,-91.935597,206,-6,"A","America/Chicago"
"1054","PBG","Plattsburgh Intl",44.650944,-73.468139,234,-5,"A","America/New_York"
"1055","PBI","Palm Beach Intl",26.683161,-80.095589,19,-5,"A","America/New_York"
"1056","PBV","St George",56.578344,-169.661611,125,-9,"A","America/Anchorage"
"1057","PBX","Pike County Airport - Hatcher Field",37.5617639,-82.5663889,1473,-5,"A","America/New_York"
"1058","PCW","Erie-Ottawa Regional Airport",41.5162703,-82.8694868,590,-5,"U","America/New_York"
"1059","PCZ","Waupaca Municipal Airport",44.33325,-89.0197778,840,-6,"A","America/Chicago"
"1060","PDB","Pedro Bay Airport",59.782222,-154.1325,45,-9,"A","America/Anchorage"
"1061","PDK","Dekalb-Peachtree Airport",33.8756111,-84.3019722,1003,-5,"A","America/New_York"
"1062","PDT","Eastern Oregon Regional Airport",45.695,-118.841389,1497,-8,"A","America/Los_Angeles"
"1063","PDX","Portland Intl",45.588722,-122.5975,30,-8,"A","America/Los_Angeles"
"1064","PEC","Pelican Seaplane Base",57.955278,-136.236389,0,-9,"A","America/Anchorage"
"1065","PEQ","Pecos Municipal Airport",31.3823889,-103.5107222,2613,-6,"A","America/Chicago"
"1066","PFN","Panama City Bay Co Intl",30.212083,-85.682806,20,-6,"A","America/Chicago"
"1067","PGA","Page Municipal Airport",36.9261,-111.4483,4316,-7,"A","America/Phoenix"
"1068","PGD","Charlotte County-Punta Gorda Airport",26.919722,-81.990556,26,-5,"A","America/New_York"
"1069","PGV","Pitt-Greenville Airport",35.635278,-77.385278,27,-5,"A","America/New_York"
"1070","PHD","Harry Clever Field Airport",40.4701667,-81.4199444,894,-5,"A","America/New_York"
"1071","PHF","Newport News Williamsburg Intl",37.131894,-76.492989,43,-5,"A","America/New_York"
"1072","PHK","Pahokee Airport",26.789,-80.692,18,-5,"A","America/New_York"
"1073","PHL","Philadelphia Intl",39.871944,-75.241139,36,-5,"A","America/New_York"
"1074","PHN","St Clair Co Intl",42.910957,-82.528862,650,-5,"A","America/New_York"
"1075","PHO","Point Hope Airport",68.3488,-166.799,12,-9,"A","America/Anchorage"
"1076","PHX","Phoenix Sky Harbor Intl",33.434278,-112.011583,1135,-7,"N","America/Phoenix"
"1077","PIA","Peoria Regional",40.664203,-89.693258,660,-6,"A","America/Chicago"
"1078","PIB","Hattiesburg Laurel Regional Airport",31.4671,-89.3371,298,-6,"A","America/Chicago"
"1079","PIE","St Petersburg Clearwater Intl",27.910167,-82.687389,10,-5,"A","America/New_York"
"1080","PIH","Pocatello Regional Airport",42.9098,-112.596,4452,-7,"A","America/Denver"
"1081","PIM","Harris County Airport",32.8406944,-84.8824444,902,-5,"A","America/New_York"
"1082","PIP","Pilot Point Airport",57.585393,-157.571944,57,-9,"A","America/Anchorage"
"1083","PIR","Pierre Regional Airport",44.3827,-100.286,1742,-6,"A","America/Chicago"
"1084","PIT","Pittsburgh Intl",40.491467,-80.232872,1204,-5,"A","America/New_York"
"1085","PIZ","Point Lay Lrrs",69.732875,-163.005342,25,-9,"A","America/Anchorage"
"1086","PKB","Mid-Ohio Valley Regional Airport",39.3451039,-81.4392031,858,-5,"A","America/New_York"
"1087","PLN","Pellston Regional Airport of Emmet County Airport",45.5709,-84.7967,720,-5,"A","America/New_York"
"1088","PMB","Pembina Muni",48.942501,-97.240833,795,-6,"A","America/Chicago"
"1089","PMD","Palmdale Rgnl Usaf Plt 42",34.629391,-118.08456,2543,-8,"A","America/Los_Angeles"
"1090","PML","Port Moller Airport",56.006111,-160.560833,20,-9,"A","America/Anchorage"
"1091","PMP","Pompano Beach Airpark",26.2471389,-80.1110556,19,-5,"A","America/New_York"
"1092","PNC","Ponca City Rgnl",36.731958,-97.099781,1007,-6,"A","America/Chicago"
"1093","PNE","Northeast Philadelphia",40.081944,-75.010586,121,-5,"A","America/New_York"
"1094","PNM","Princeton Muni",45.559868,-93.608217,979,-6,"A","America/Chicago"
"1095","PNS","Pensacola Rgnl",30.473425,-87.186611,121,-6,"A","America/Chicago"
"1096","POB","Pope Field",35.170883,-79.014472,217,-5,"A","America/New_York"
"1097","POC","Brackett Field",34.0916667,-117.7817778,1014,-8,"A","America/Los_Angeles"
"1098","POE","Polk Aaf",31.044833,-93.191667,330,-6,"A","America/Chicago"
"1099","POF","Poplar Bluff Municipal Airport",36.77394444,-90.3248611,331,-6,"A","America/Chicago"
"1100","PPC","Prospect Creek Airport",66.814167,-150.643611,1095,-9,"A","America/Anchorage"
"1101","PPV","Port Protection Seaplane Base",56.328889,-133.61,0,-9,"A","America/Anchorage"
"1102","PQI","Northern Maine Rgnl At Presque Isle",46.688958,-68.044797,534,-5,"A","America/New_York"
"1103","PQS","Pilot Station Airport",61.934444,-162.899444,305,-9,"A","America/Anchorage"
"1104","PRC","Ernest A Love Fld",34.654472,-112.419583,5045,-7,"A","America/Phoenix"
"1105","PRL","Port Oceanic Airport",60.2083333,-147.8194444,142,-9,"A","America/Anchorage"
"1106","PSC","Tri Cities Airport",46.2647,-119.119,410,-8,"A","America/Los_Angeles"
"1107","PSG","Petersburg James A. Johnson",56.801667,-132.945278,105,-9,"A","America/Anchorage"
"1108","PSM","Pease International Tradeport",43.0779,-70.8233,100,-5,"A","America/New_York"
"1109","PSP","Palm Springs Intl",33.829667,-116.506694,477,-8,"A","America/Los_Angeles"
"1110","PSX","Palacios Muni",28.727508,-96.250958,14,-6,"A","America/Chicago"
"1111","PTA","Port Alsworth Airport",60.208281,-154.306586,253,-9,"A","America/Anchorage"
"1112","PTB","Dinwiddie County Airport",37.18375,-77.507388,193,-5,"A","America/New_York"
"1113","PTH","Port Heiden Airport",56.9591,-158.633,95,-9,"A","America/Anchorage"
"1114","PTK","Oakland Co. Intl",42.667,-83.35,980,-5,"A","America/New_York"
"1115","PTU","Platinum",59.011356,-161.819664,15,-9,"A","America/Anchorage"
"1116","PUB","Pueblo Memorial",38.289085,-104.496572,4726,-7,"A","America/Denver"
"1117","PUC","Carbon County Regional-Buck Davis Field",39.609722,-110.75278,5957,-7,"A","America/Denver"
"1118","PUW","Pullman-Moscow Rgnl",46.743861,-117.109583,2556,-8,"A","America/Los_Angeles"
"1119","PVC","Provincetown Muni",42.071945,-70.22139,9,-5,"A","America/New_York"
"1120","PVD","Theodore Francis Green State",41.732581,-71.420383,55,-5,"A","America/New_York"
"1121","PVU","Provo Municipal Airport",40.21805555,-111.72222222,4497,-7,"A","America/Denver"
"1122","PWK","Chicago Executive",42.1142897,-87.9015376,647,-6,"A","America/Chicago"
"1123","PWM","Portland Intl Jetport",43.646161,-70.309281,77,-5,"A","America/New_York"
"1124","PWT","Bremerton National",47.490244,-122.764814,444,-8,"A","America/Los_Angeles"
"1125","PYM","Plymouth Municipal Airport",41.9090278,-70.7287778,148,-5,"A","America/New_York"
"1126","PYP","Centre-Piedmont-Cherokee County Regional Airport",34.0899167,-85.6100833,595,-6,"A","America/Chicago"
"1127","R49","Ferry County Airport",48.7182058,-118.6564714,2522,-8,"A","America/Los_Angeles"
"1128","RAC","John H. Batten Airport",42.7605,-87.8152,674,-6,"A","America/Chicago"
"1129","RAL","Riverside Muni",33.951875,-117.445103,818,-8,"A","America/Los_Angeles"
"1130","RAP","Rapid City Regional Airport",44.045278,-103.057222,3204,-7,"A","America/Denver"
"1131","RBD","Dallas Executive Airport",32.680833,-96.868333,201,-6,"A","America/Chicago"
"1132","RBK","French Valley Airport",33.5741791,-117.1284732,1350,-8,"A","America/Los_Angeles"
"1133","RBM","Robinson Aaf",34.850089,-92.300153,587,-6,"A","America/Chicago"
"1134","RBN","Fort Jefferson",24.61667,-82.86667,0,-5,"A","America/New_York"
"1135","RBY","Ruby Airport",64.7272,-155.47,653,-9,"A","America/Anchorage"
"1136","RCA","Ellsworth Afb",44.145042,-103.103567,3279,-7,"A","America/Denver"
"1137","RCE","Roche Harbor Seaplane Base",48.608056,-123.159722,0,-8,"A","America/Los_Angeles"
"1138","RCZ","Richmond County Airport",34.8913056,-79.7596111,358,-5,"A","America/New_York"
"1139","RDD","Redding Muni",40.509,-122.293389,504,-8,"A","America/Los_Angeles"
"1140","RDG","Reading Regional Carl A Spaatz Field",40.3785,-75.9652,344,-5,"A","America/New_York"
"1141","RDM","Roberts Fld",44.254066,-121.149964,3077,-8,"A","America/Los_Angeles"
"1142","RDR","Grand Forks Afb",47.961098,-97.401194,913,-6,"A","America/Chicago"
"1143","RDU","Raleigh Durham Intl",35.877639,-78.787472,435,-5,"A","America/New_York"
"1144","RDV","Red Devil Airport",61.788056,-157.350278,174,-9,"A","America/Anchorage"
"1145","REI","Redlands Municipal Airport",34.08525,-117.146388,1574,-8,"A","America/Los_Angeles"
"1146","RFD","Chicago Rockford International Airport",42.1953611,-89.0972222,742,-6,"A","America/Chicago"
"1147","RHI","Rhinelander Oneida County Airport",45.6312,-89.4675,1624,-6,"A","America/Chicago"
"1148","RIC","Richmond Intl",37.505167,-77.319667,167,-5,"A","America/New_York"
"1149","RID","Richmond Municipal Airport",39.7561006,-84.8427175,1140,-5,"U","America/New_York"
"1150","RIF","Richfield Minicipal Airport",38.7364361,-112.0989444,5301,-7,"A","America/Denver"
"1151","RIL","Garfield County Regional Airport",39.5263056,-107.7269444,5548,-7,"A","America/Denver"
"1152","RIR","Flabob Airport",33.988778,-117.409971,764,-8,"A","America/Los_Angeles"
"1153","RIU","Rancho Murieta",38.486778,-121.102778,141,-8,"A","America/Los_Angeles"
"1154","RIV","March Arb",33.880711,-117.259453,1535,-8,"A","America/Los_Angeles"
"1155","RIW","Riverton Regional",43.064167,-108.459722,5525,-7,"A","America/Denver"
"1156","RKD","Knox County Regional Airport",44.0601111,-69.0992303,56,-5,"A","America/New_York"
"1157","RKH","Rock Hill York Co Bryant Airport",34.9878,-81.0572,667,-5,"A","America/New_York"
"1158","RKP","Aransas County Airport",28.0862222,-97.0436944,24,-6,"A","America/Chicago"
"1159","RKS","Rock Springs Sweetwater County Airport",41.5942,-109.065,6760,-7,"A","America/Denver"
"1160","RME","Griffiss Afld",43.2338,-75.407033,504,-5,"A","America/New_York"
"1161","RMG","Richard B Russell Airport",34.3507778,-85.1586667,664,-5,"A","America/New_York"
"1162","RMP","Rampart Airport",65.507778,-150.140833,302,-9,"A","America/Anchorage"
"1163","RMY","Brooks Field Airport",42.2511932,-84.9554443,941,-5,"A","America/New_York"
"1164","RND","Randolph Afb",29.529675,-98.2789,762,-6,"A","America/Chicago"
"1165","RNM","Ramona Airport",33.0391667,-116.91525,1395,-8,"A","America/Los_Angeles"
"1166","RNO","Reno Tahoe Intl",39.499108,-119.768108,4415,-8,"A","America/Los_Angeles"
"1167","RNT","Renton",47.4931389,-122.21575,32,-8,"A","America/Los_Angeles"
"1168","ROA","Roanoke Regional",37.325472,-79.975417,1175,-5,"A","America/New_York"
"1169","ROC","Greater Rochester Intl",43.118866,-77.672389,559,-5,"A","America/New_York"
"1170","ROW","Roswell Intl Air Center",33.301556,-104.530556,3671,-7,"A","America/Denver"
